name,address,city,state,country,postalCode,latitude,longitude,categories,keys,,
(512) Brewing Company,407 Radam Lane,Austin,TX,US,,30.22308,-97.769899,"Attraction,Bars,Clubs and Nightlife,Brewery",us/tx/austin/407radamlane/1163787123,,
1 More Brewing Co,816 Yellowstone Trl,Waconia,MN,US,55387,44.8497,-93.7731,Brewers,us/mn/waconia/816yellowstonetrl/-721744422,,
10 Barrel Brewing Boise,826 W Bannock St,Boise,ID,US,83702,43.6179,-116.2027,Brewers,us/id/boise/826wbannockst/-2133153677,,
10 Barrel Brewing Co,20750 High Desert Ln,Bend,OR,US,97701,44.089,-121.2854,"Brewers,Wineries",us/or/bend/20750highdesertln/906631547,,
100 Montaditos,C.C. Alcalá Magna,Asheville,NC,US,28805,35.57,-82.54,Brewery,us/nc/asheville/ccalcalmagna/-1769803637,,
100 Montaditos,Espacio Mediterráneo Centro Comercial y de Ocio,Atlanta,GA,US,30353,33.85,-84.39,Brewery,us/ga/atlanta/espaciomediterrneocentrocomercialydeocio/-1769803637,,
100 Montaditos,Pl. de Conde Casal,Ansonville,NC,US,28007,35.1,-80.1,Brewery,us/nc/ansonville/pldecondecasal/-1769803637,,
1000 Campanas Suenan En Mi Corazón,"C. Mesena, 106",Crouse,NC,US,28033,35.42,-81.3,"American Restaurant,Brewery",us/nc/crouse/cmesena106/-981241653,,
101 Cider House,31111 Via Colinas,Thousand Oaks,CA,US,91362,34.18,-118.87,Brewery,us/ca/thousandoaks/31111viacolinas/467854215,,
101 North Brewing Company,1304 Scott St Ste D,Petaluma,CA,US,94954,38.21,-122.76,Brewery,us/ca/petaluma/1304scottststed/-2012925456,,
10barrel brewing,2620 Walnut St,Denver,CO,US,80205,39.75939,-104.9855,"Brewery,Restaurant",us/co/denver/2620walnutst/906631547,,
10K Brewing,2005 2nd Ave,Anoka,MN,US,55303,45.19832,-93.38955,"Brewery,Restaurant",us/mn/anoka/20052ndave/41112564,,
11 Below Brewing Company,6820 Bourgeois Rd,Houston,TX,US,77066,29.76,-95.38,Brewery,us/tx/houston/6820bourgeoisrd/2069673262,,
11th Hour Brewing Co,3711 Charlotte St,Pittsburgh,PA,US,15201,40.43,-79.97,Brewers,us/pa/pittsburgh/3711charlottest/415009832,,
12 Degree Brewing,Main Street,Louisville,CO,US,80027,39.96,-105.14,Brewery,us/co/louisville/mainstreet/-1198102829,,
12 Gates Brewing,80 Earhart Dr 20,Buffalo,NY,US,14221,42.9549,-78.7146,Brewers,us/ny/buffalo/80earhartdr20/923562553,,
12 String Brewing Co,11616 E Montgomery Dr,Spokane,WA,US,99206,47.6771,-117.2493,Brewers,us/wa/spokane/11616emontgomerydr/-82481682,,
12 West Brewing Co.,3000 E Ray Rd,Gilbert,AZ,US,,33.34,-111.81,Brewery,us/az/gilbert/3000erayrd/1950847568,,
13 Point Brewing Co LLC,2153 Farleigh Rd,Columbus,OH,US,43221,40.015,-83.0696,Brewers,us/oh/columbus/2153farleighrd/-1368307918,,
13 Village Brewing LLC,236 E Welch Ave,Columbus,OH,US,43207,39.98,-82.98,Brewers,us/oh/columbus/236ewelchave/1319944214,,
13 Virtues Brewing Co.,6410 SE Milwaukie Ave,Portland,OR,US,97202,45.5,-122.69,Brewery,us/or/portland/6410semilwaukieave/-1082088716,,
1300g @ Tview,1300G Terrace Vw,Blacksburg,VA,US,24060,37.23,-80.42,Brewery,us/va/blacksburg/1300gterracevw/1735480116,,
1333 Brewery Park LLC,1333 Gratiot Ave,Detroit,MI,US,48207,42.3432,-83.0402,Brewers,us/mi/detroit/1333gratiotave/2010417874,,
1420. Tienda de la cerveza.,"Calle de la Serna, 42 León",Roanoke,VA,US,24007,37.27,-79.95,Brewery,us/va/roanoke/calledelaserna42len/-1068453708,,
14th Star Brewing Co LLC,41 Lower Newton St,Saint Albans,VT,US,5478,44.8107,-73.0836,Brewers,us/vt/saintalbans/41lowernewtonst/1413488855,,
14th Star Brewing Company,133 N Main St,Saint Albans,VT,US,#REF!,44.81492,-73.08224,"Breweries,Food & Drink",us/stalbans/saintalbans/133nmainst/2083782,,
1585 Pennsauken LLC,1585 State Hwy No 73,Pennsauken,NJ,US,8110,39.984676,-75.020563,Brewers,us/nj/pennsauken/1585statehwyno73/-1520162141,,
16 Mile Brewing Company,413 S Bedford St,Georgetown,DE,US,19947,38.69,-75.38,"Brewery,Bar",us/de/georgetown/413sbedfordst/-180662505,,
1840 Brewing Co LLC,342 E Ward St,Milwaukee,WI,US,53207,43.06,-87.96,Brewers,us/wi/milwaukee/342ewardst/-1872230563,,
1912 Brewing Co.,2045 N Forbes Blvd,Tucson,AZ,US,85745,32.24656,-110.99348,"Breweries,Food & Drink",us/az/tucson/2045nforbesblvd/-1750694601,,
192 Brewing Tasting Room,7324 NE 175th St,Kenmore,WA,US,98028,47.75683056,-122.2419298,"Brewery,Bar",us/wa/kenmore/7324ne175thst/2006751065,,
1933 Brewing Company,4025 S Mason,Fort Collins,CO,US,80525,40.53153378,-105.0799763,Brewery,us/co/fortcollins/4025smason/1156637029,,
1940 Brewing Co LLC,1337 Lincoln Ave 1,Holbrook,NY,US,11741,40.79,-73.07,Brewers,us/ny/holbrook/1337lincolnave1/-2068744068,,
1940's Brewing Company,1337 1 Lincoln Ave,Holbrook,NY,US,11741,40.79,-73.07,Brewery,us/ny/holbrook/13371lincolnave/99633388,,
1960 C B Tavern,1960 N 2nd St,Philadelphia,PA,US,PhiladelphiaPA,39.95,-75.16,breweries & brew pubs,us/pa/philadelphia/1960n2ndst/737568537,,
1st Republic Brewing Co,39 River Rd,Essex Junction,VT,US,5452,44.4835,-73.0844,Brewers,us/vt/essexjunction/39riverrd/590149938,,
2 Man Brew LLC,18439 Limestone Rd,Jupiter,FL,US,33458,26.9479,-80.1186,Brewers,us/fl/jupiter/18439limestonerd/2076471530,,
2 Way Brewing Co,18 W Main St,Beacon,NY,US,12508,41.5084,-73.9806,Brewers,us/ny/beacon/18wmainst/-224600189,,
20 Corners Brewing,14148 NE 190th St,Woodinville,WA,US,98072,47.75,-122.09,Brewery,us/wa/woodinville/14148ne190thst/748868320,,
2124 Brewing Co,8321 Ohio River Blvd,Pittsburgh,PA,US,15202,40.43,-79.97,Brewers,us/pa/pittsburgh/8321ohioriverblvd/-297371713,,
21st Amendment Brewery,2010 Williams St,San Leandro,CA,US,94577,37.7118073,-122.1776581,Brewery,us/ca/sanleandro/2010williamsst/1624822365,,
24 Gourmet Vineyards Inc,21 Portnellan Ave,New Rochelle,NY,US,10804,40.9356,-73.7969,"Beverage Manufacturers,Breweries",us/ny/newrochelle/21portnellanave/112345338,,
26 Degree Brewing Company,2600 E Atlantic Ave,Pompano Beach,FL,US,33062,26.231281,-80.09754,"Breweries,Food & Drink",us/laudbysea/pompanobeach/2600eatlanticave/-625761555,,
2kids Brewing Company,8680 Miralani Dr,San Diego,CA,US,92126,32.71,-117.16,Brewery,us/ca/sandiego/8680miralanidr/-1125852100,,
2nd Shift Brewing and Tasting Room,1601 Sublette Ave,Saint Louis,MO,US,63110,38.63,-90.24,Brewery,us/mo/saintlouis/1601subletteave/-1965229975,,
2nd Shift Brewing Co,101 Cedar Creek Rd,New Haven,MO,US,63068,38.543523,-91.181287,Brewers,us/detmold/newhaven/101cedarcreekrd/384427590,,
2nd Story Brewing Co,117 Chestnut St,Philadelphia,PA,US,19106,39.9485,-75.1435,Brewers,us/pa/philadelphia/117chestnutst/-973733261,,
2sp Brewing Co,120 Concord Rd,Aston,PA,US,19014,39.8623,-75.4144,"Brewers,Brewery",us/pa/aston/120concordrd/-871648591,,
3 Bean Brew LLC,85 Isle Of Venice Dr,Fort Lauderdale,FL,US,33301,26.1235,-80.1208,Brewers,us/fl/fortlauderdale/85isleofvenicedr/-663937563,,
3 Daughters Brewery,222 22nd St S,Saint Petersburg,FL,US,33712,27.75,-82.64,Brewery,us/fl/saintpetersburg/22222ndsts/501374610,,
3 Floyds Brewery & Pub,9750 Indiana Pkwy,Munster,IN,US,46321,41.54,-87.5,"brewery,Pub",us/in/munster/9750indianapkwy/973829829,,
3 Guys & A Beer'd Brewing,10 Enterprise,Carbondale,PA,US,18407,41.57,-75.5,Brewers,us/pa/carbondale/10enterprise/2140523943,,
3 Guys Brewing LLC,4723 Monte Vista Dr,Addis,LA,US,70710,30.3775,-91.2682,Brewers,us/la/addis/4723montevistadr/-588624891,,
3 Huskies Brewing,401 Lakeshore Dr,Canandaigua,NY,US,14424,42.8724,-77.2511,Brewers,us/ny/canandaigua/401lakeshoredr/-1093762623,,
3 Keys Brewing & Eatery,2505 Manatee Ave E,Bradenton,FL,US,34208,27.48,-82.57,Brewery,us/fl/bradenton/2505manateeavee/1123070317,,
3 Nations Brewing,2405 Squire Pl 200,Dallas,TX,US,75234,32.79,-96.76,Brewers,us/tx/dallas/2405squirepl200/902661895,,
3 Sons Brewing Co LLC,236 N Federal Hwy,Dania,FL,US,33004,26.048,-80.1436,Brewers,us/fl/dania/236nfederalhwy/-1090961076,,
3 Stars Brewing Company,6400 Chillum Place Northwest,Washington D.C.,DC,US,,38.967496,-77.01272,"Attraction,Bars,Clubs and Nightlife,Brewery",us/districtofcolumbia/washingtondc/6400chillumplacenorthwest/-734951317,,
300 Suns Brewing,335 1st Ave Unit C,Longmont,CO,US,80501,40.17,-105.11,Brewery,us/co/longmont/3351staveunitc/425548486,,
305 Brews,3535 Northeast 2nd Avenue,Miami,FL,US,33137,25.8099,-80.1909,Brewers,us/fl/miami/3535northeast2ndavenue/-49135303,,
32 North Brewing Co,3465 Camino Del Rio S,San Diego,CA,US,92108,32.777,-117.1188,Brewers,us/ca/sandiego/3465caminodelrios/-1511521574,,
32 North Brewing Co.,8655 Production Ave,San Diego,CA,US,92121,32.8827827,-117.1648515,Brewery,us/ca/sandiego/8655productionave/-1511521574,,
38 State Brewing Company,8071 S. Broadway Unit A,Littleton,CO,US,80122,39.568966,-104.98962,"Restaurant,Pubs,Brewery",us/co/littleton/8071sbroadwayunita/-1242067671,,
3cross Brewing Company,26 Cambridge St,Worcester,MA,US,1603,42.26,-71.8,Brewery,us/ma/worcester/26cambridgest/-1153193462,,
3rd Coast Brewing Co LLC,1829 Bering Dr 22,Houston,TX,US,77057,29.7472,-95.478,Brewers,us/tx/houston/1829beringdr22/1955667567,,
3rd Turn Brewing,6511 Glenridge Park Pl 1,Louisville,KY,US,40222,38.2858,-85.6294,Brewers,us/ky/louisville/6511glenridgeparkpl1/97201598,,
3rd Wave Brewing Company,Bi state,Delmar,DE,US,19940,38.46089334,-75.57440871,Brewery,us/de/delmar/bistate/880789115,,
4 J G's Orchards & Vineyards,127 Hillsdale Rd,Colts Neck,NJ,US,7722,40.28,-74.16,"Wineries,Vineyards,Brewers",us/nj/coltsneck/127hillsdalerd/-2016164827,,
4 Noses Brewing Company,8855 W 116th Cir,Broomfield,CO,US,80021,39.90648251,-105.0984737,Brewery,us/co/broomfield/8855w116thcir/405758761,,
405 Brewing Co,1716 Topeka St,Norman,OK,US,73069,35.2573,-97.4681,Brewers,us/ok/norman/1716topekast/-170905529,,
406 Brewing Company,101 E Oak St,Bozeman,MT,US,59715,45.69292129,-111.0343548,"Restaurant,Brewery",us/mt/bozeman/101eoakst/2056251543,,
42 North Brewing Co.,25 Pine St,East Aurora,NY,US,14052,42.76,-78.61,Brewery,us/ny/eastaurora/25pinest/-2017080199,,
4204 Main Street Brewing Co,4204 W Main St,Belleville,IL,US,62226,38.5379,-90.0211,Brewers,us/il/belleville/4204wmainst/-322166686,,
45th Parallel Spirits,1570 Madison Ave,New Richmond,WI,US,54017,45.103436,-92.54965,"Breweries,Food & Drink",us/cylon/newrichmond/1570madisonave/1756964198,,
46 & 2 Brewing LLC,3243 Clarendon Rd,Cleveland,OH,US,44118,41.4932,-81.5638,Brewers,us/oh/cleveland/3243clarendonrd/935805872,,
47 Hills Brewing Co,137 S Linden Ave,South San Francisco,CA,US,94080,37.6506,-122.4116,Brewers,us/ca/southsanfrancisco/137slindenave/-1616925935,,
47 Hills Brewing Company,137 S Linden Ave,South San Francisco,CA,US,94080,37.65,-122.42,Brewery,us/ca/southsanfrancisco/137slindenave/-418042804,,
48th Parallel Brewing Co LLC,435 E Main St 185,Greenwood,IN,US,46143,39.6138,-86.0999,Brewers,us/in/greenwood/435emainst185/911766721,,
49th State Brewing,717 W 3rd Ave,Anchorage,AK,US,99501,61.21963,-149.89574,"Brewery,Restaurant",us/ak/anchorage/717w3rdave/-1060963288,,
49th State Brewing Co.,Mile 2484 Parks Hwy,Healy,AK,US,99743,63.86386086,-149.016667,"Restaurant,Brewery",us/ak/healy/mile2484parkshwy/-1060963288,,
4th St Beverage Shack,2020 N 4th St,Coeur D Alene,ID,US,83814,47.59,-116.91,"Wholesale Foods,Breweries",us/id/coeurdalene/2020n4thst/-1948545652,,
4th Street Brewing (reported Closed),77 N E 4th St,Gresham,OR,US,97030,45.500504,-122.429975,Brewers,us/or/gresham/77ne4thst/1485972692,,
4th Tap Brewing Co-Op,10615 Metric Blvd,Austin,TX,US,78758,30.3851,-97.7124,Brewers,us/tx/austin/10615metricblvd/-101875994,,
4th Tap Brewing Cooperative,10615 Metric Blvd,Austin,TX,US,78758,30.3851408,-97.7118457,"Attraction,Bars,Clubs and Nightlife,Brewery",us/tx/austin/10615metricblvd/-193665050,,
5 Rabbit Brewery,6398 W 74th St,Chicago,IL,US,60638,41.85,-87.65,Brewery,us/forestview/chicago/6398w74thst/1372123579,,
5 Rabbit Cerveceria Inc,6398 W 74th St,Chicago,IL,US,60638,41.758,-87.7796,Brewers,us/il/chicago/6398w74thst/-459764840,,
5 Seasons Brewery,1000 Marietta St NW 204,Atlanta,GA,US,30318,33.7785,-84.4107,Brewers,us/ga/atlanta/1000mariettastnw204/1269107887,,
5 Seasons Brewing,5600 Roswell Rd,Atlanta,GA,US,30342,33.85,-84.39,"Brewery,American Restaurant",us/ga/atlanta/5600roswellrd/1269111589,,
5 Seasons Brewing,5600 Roswell Rd,Atlanta,GA,US,30342,33.90807025,-84.38065049,"American Restaurant,Brewery",us/tuxedo/atlanta/5600roswellrd/1269111589,,
5040 Brewing Co,3801 S Truman Rd,Washougal,WA,US,98671,45.5651,-122.328,Brewers,us/wa/washougal/3801strumanrd/1102006633,,
51 North Brewing Company,51 N Broadway St,Lake Orion,MI,US,48362,42.78,-83.24,Brewery,us/mi/lakeorion/51nbroadwayst/124339462,,
51 North Brewing Company,51 N Broadway St,Lake Orion,MI,US,48362,42.78,-83.24,Brewery,us/oriontwp/lakeorion/51nbroadwayst/124339462,,
512 Brewing Co,407 Radam Ln,Austin,TX,US,78745,30.223611,-97.769667,"Brewery,Brewers",us/tx/austin/407radamln/1186630090,,
512 Brewing Company,407 Radam Ln,Austin,TX,US,78745,30.2234,-97.76974,"Restaurant,Brewery",us/tx/austin/407radamln/1163787123,,
515 Brewing Co,7700 University Ave,Clive,IA,US,50325,41.6,-93.76,Brewers,us/ia/clive/7700universityave/2120093799,,
515 Brewing Company,7700 University Ave,Clive,IA,US,50325,41.6,-93.76,"brewery,Pub",us/ia/clive/7700universityave/1391475254,,
54°40' Brewing Co.,3801 S Truman Rd,Washougal,WA,US,98671,45.56466465,-122.3271628,Brewery,us/wa/washougal/3801strumanrd/315952613,,
56 Brewing,3055 Columbia Ave NE,Minneapolis,MN,US,55418,44.96,-93.26,Brewery,us/mn/minneapolis/3055columbiaavene/-1541632545,,
5th Element Brewing,7117 Wood Hollow Dr 618,Austin,TX,US,78731,30.3535,-97.753,Brewers,us/tx/austin/7117woodhollowdr618/-981462323,,
5th Quadrant,3901 N Williams Ave,Portland,OR,US,97227,45.5,-122.69,Brewery,us/or/portland/3901nwilliamsave/1934085733,,
5th Quarter Tavern,333 C St,Palmyra,NE,US,68418-4134,40.703042,-96.389977,breweries & brew pubs,us/ne/palmyra/333cst/-1325716485,,
5th Street Corner Pub III,500 Beecher St,Louisville,KY,US,40215,38.1918,-85.7685,Brewers,us/ky/louisville/500beecherst/1714509421,,
603 Brewery,12 Liberty Dr,Londonderry,NH,US,3053,42.9164,-71.3629,"Brewers,Restaurant",us/nh/londonderry/12libertydr/245410385,,
608 Brewing Co LLC,2715 S Cedar Ave,Holmen,WI,US,54636,43.9358,-91.2445,Brewers,us/wi/holmen/2715scedarave/369531170,,
611 Sia-Aon Deug Brewery LLC,920 Hillwood Dr,Dunedin,FL,US,34698,28.0082,-82.7741,Brewers,us/fl/dunedin/920hillwooddr/381797484,,
7 Hermits Brewing Company,717 Sylvan Lake rd Unit B-1,Eagle,CO,US,81631,39.65,-106.82,Brewery,us/co/eagle/717sylvanlakerdunitb1/829904566,,
7 Hills Brewing Co,115 S 15th St,Richmond,VA,US,23219,37.5332,-77.4317,Brewers,us/va/richmond/115s15thst/-1097681211,,
7 Locks Brewing,12227 Wilkins Ave,Rockville,MD,US,20852,39.055813,-77.11018,Brewery,us/nobethesda/rockville/12227wilkinsave/802952111,,
7 Mile Brewery,3156 Route 9 Soute,Rio Grande,NJ,US,8242,39.02,-74.87,Brewery,us/nj/riogrande/3156route9soute/-808345890,,
7 Seas Brewery and Taproom,2101 Jefferson Ave,Tacoma,WA,US,98402,47.24176,-122.43886,"Brewery,Restaurant",us/wa/tacoma/2101jeffersonave/935157263,,
7 Seas Brewing & Taproom,3006 Judson St,Gig Harbor,WA,US,98335,47.37,-122.71,Brewery,us/artondale/gigharbor/3006judsonst/1778138841,,
7 Sisters Brewing Co LLC,744 Ridge Rd,Nipomo,CA,US,93444,35.05,-120.48,Brewers,us/ca/nipomo/744ridgerd/-1627542040,,
7 Up Bottling Co,2670 Land Ave,Sacramento,CA,US,95815,38.6159,-121.4334,"Bottlers,Beverage Manufacturers,Breweries",us/ca/sacramento/2670landave/20056085,,
7 Up Bottling Co of Mankato,1400 Lake St,Mankato,MN,US,56003,44.188596,-94.020494,"Bottlers,Beverage Manufacturers,Breweries",us/nomankato/mankato/1400lakest/1808713855,,
7 Up Rc Bottling Co,2012 S Pearl St,Fresno,CA,US,93721,36.722348,-119.775127,"Beverage Manufacturers,Bottlers,Breweries",us/ca/fresno/2012spearlst/-2044798778,,
7 Up Rc Bottling Co,12201 Beech Daly Rd,Redford,MI,US,48239,42.3775,-83.2975,"Beverage Manufacturers,Bottlers,Breweries",us/mi/redford/12201beechdalyrd/-2044798778,,
716 Fire & Brew LLC,1911 Webb Rd,Grand Island,NY,US,14072,43.0147,-78.9622,Brewers,us/ny/grandisland/1911webbrd/-468932396,,
7th Settlement,47 Washington St,Dover,NH,US,3820,43.19535958,-70.87258212,Brewery,us/nh/dover/47washingtonst/1005878356,,
7venth Sun Brewery,1012 Broadway,Dunedin,FL,US,34698,28.0162143,-82.78990022,"Brewery,Bar",us/fl/dunedin/1012broadway/-1624872230,,
7venth Sun Brewery Tampa LLC,6809 N Nebraska Ave,Tampa,FL,US,33604,27.95,-82.48,Brewers,us/fl/tampa/6809nnebraskaave/1155314423,,
81 Bay Brewing Co,4465 W Gandy Blvd 600,Tampa,FL,US,33611,27.95,-82.48,Brewers,us/fl/tampa/4465wgandyblvd600/42865151,,
856 Brewing Co,50 SW Division St,Bend,OR,US,97702,43.98,-121.27,Brewers,us/or/bend/50swdivisionst/338513063,,
8-bit Aleworks,1050 Fairway Doctor F,Avondale,AZ,US,85323,33.45441,-112.32644,"Breweries,Food & Drink",us/az/avondale/1050fairwaydoctorf/1880612605,,
8one8 Brewing LLC,8951 De Soto Ave,Canoga Park,CA,US,91304,34.19,-118.6,"Brewers,Brewery",us/ca/canogapark/8951desotoave/1984430486,,
9 Yards Brewery,7324 N E 175th St,Kenmore,WA,US,98028,47.7565644,-122.2424266,Brewery,us/wa/kenmore/7324ne175thst/-1898690230,,
903 Brewers,1718 S Elm St,Sherman,TX,US,75090,33.617188,-96.60703,"Food & Drink,Breweries",us/tx/sherman/1718selmst/-344130136,,
A & B Beverage,193 US-2,Grand Isle,VT,US,5458,44.7192,-73.295,"Beverage Manufacturers,Breweries",us/vt/grandisle/193us2/878409441,,
A & B Beverage,1961 S Broadway St,Wichita,KS,US,67211,37.6572,-97.3357,"Beverage Manufacturers,Breweries",us/ks/wichita/1961sbroadwayst/878409441,,
A & G Intl INC,1235 Flynn Rd,Camarillo,CA,US,93012,34.2297,-119.0196,Brewers,us/ca/camarillo/1235flynnrd/98360132,,
A & S Brewing Collaborative,1904 Surf Ave,Brooklyn,NY,US,11224,40.575,-73.9857,Brewers,us/ny/brooklyn/1904surfave/345640040,,
A B W Brew LLC,801 S Riverside Harbor Dr,Post Falls,ID,US,83854,47.78,-117.02,Brewers,us/id/postfalls/801sriversideharbordr/-1376379177,,
A Cervexa,Av. General Sanjurjo,Bairdford,PA,US,15006,43.3558223,-8.402829204,Brewery,us/pa/bairdford/avgeneralsanjurjo/668993064,,
A Cova Celtica,Rua Orzan 82,Ambridge,PA,US,15003,43.37105,-8.40252,"Breweries,Food & Drink",us/pa/ambridge/ruaorzan82/1538323686,,
A Haven Brand-Natural Brew,25190 Washington Ave,Murrieta,CA,US,92562,33.5502,-117.2074,Brewers,us/ca/murrieta/25190washingtonave/-1023227190,,
A J S Lounge A,1028 Walden Ave,Buffalo,NY,US,BuffaloNY,42.88,-78.85,breweries & brew pubs,us/ny/buffalo/1028waldenave/598497534,,
A J's Drive Thru,417 Russell Ave,Akron,OH,US,44307,41.08,-81.52,"Breweries,Wholesale Foods",us/oh/akron/417russellave/306243864,,
A J's Pub,125 N Main St,Oconomowoc,WI,US,53066,43.1,-88.49,Brewers,us/wi/oconomowoc/125nmainst/101430548,,
A Mother's Brew,3300 Oak Dr,Violet,LA,US,70092,29.914,-89.8897,Brewers,us/la/violet/3300oakdr/1536514834,,
A VBeure,Calle Figuerola nº 39,Camp Hill,PA,US,17001,40.24,-76.92,Brewery,us/pa/camphill/callefiguerolan39/-823097457,,
A&S Brewing Collaborative LLC,209 Battery St 100,Burlington,VT,US,5401,44.4735,-73.2189,Brewers,us/vt/burlington/209batteryst100/345640040,,
Ô Zen,Rue Carnot,Eldorado,IL,US,62930,37.81,-88.44,Brewery,us/il/eldorado/ruecarnot/120483,,
A1 Discount Beverage,13508 Hicks Rd,Hudson,FL,US,34669,28.35,-82.69,"Breweries,Wholesale Foods",us/fl/hudson/13508hicksrd/-1839806288,,
A1A Ale Works,1 King St 101,Saint Augustine,FL,US,32084,29.892,-81.3111,Brewers,us/fl/saintaugustine/1kingst101/-1154350183,,
Aardwolf Brewing Co LLC,1461 Hendricks Ave,Jacksonville,FL,US,32207,30.3107,-81.6543,Brewers,us/fl/jacksonville/1461hendricksave/-199615620,,
Abandon Brewing Company,2994 Merritt Hill Rd,Penn Yan,NY,US,14527,42.66,-77.05,Brewery,us/ny/pennyan/2994merritthillrd/-1686787438,,
Abandoned Building Brewery,142 Pleasant St 103A,Easthampton,MA,US,1027,42.2733,-72.6634,Brewers,us/ma/easthampton/142pleasantst103a/-323824734,,
Abbey Gail's Pub,729 Oak St,Scranton,PA,US,18508,41.444344,-75.66484,"Brewers,Restaurant",us/pa/scranton/729oakst/1454344828,,
Abiff's Pub,3299 Hwy 46 S,Dickson,TN,US,37055,35.976844,-87.315152,Brewers,us/tn/dickson/3299hwy46s/1483813074,,
Abirradero,"C. Vila i Vilà, 77",Atco,NJ,US,8004,39.76,-74.85,Brewery,us/nj/atco/cvilaivil77/1140228791,,
Abita Brewing Co,166 Barbee Rd,Covington,LA,US,70433,30.4804,-90.0558,Brewers,us/la/covington/166barbeerd/-1346247381,,
Abita Brewing Co,1806 W Watrous Ave,Tampa,FL,US,33606,27.9319,-82.4796,Brewers,us/fl/tampa/1806wwatrousave/-1346247381,,
Abita Brewing Company,166 Barbee Rd,Covington,LA,US,70433,30.47,-90.11,Brewery,us/riverwood/covington/166barbeerd/1572618482,,
Able Ebenezer Brewing Co LLC,31 Columbia Cir,Merrimack,NH,US,3054,42.8526,-71.4933,Brewers,us/nh/merrimack/31columbiacir/2031015646,,
Ablestar Brewing Co LLC,3130 Maplewood Dr,Bettendorf,IA,US,52722,41.56,-90.47,Brewers,us/ia/bettendorf/3130maplewooddr/940647284,,
Abnormal Beer Co,16990 Via Tazon,San Diego,CA,US,92127,33.023852,-117.085759,Brewery,us/ca/sandiego/16990viatazon/-1626727304,,
Abreu Coffee Brew Inc,45 W 45th St 1102,New York,NY,US,10036,40.7561,-73.9809,Brewers,us/ny/newyork/45w45thst1102/-1164138897,,
Absolution Brewing Company,2878 Columbia St,Torrance,CA,US,90503,33.84315,-118.3379,"Brewery,Restaurant",us/ca/torrance/2878columbiast/-371695625,,
Accomplice Brewery LLC,1023 N Florida Mango Rd 906,West Palm Beach,FL,US,33409,26.6913,-80.079,Brewers,us/fl/westpalmbeach/1023nfloridamangord906/-1012462886,,
Ace Spades,2511 Romig Rd,Akron,OH,US,AkronOH,41.08,-81.52,breweries & brew pubs,us/oh/akron/2511romigrd/57474609,,
Ace Wine & Spirts,2315 30th St,Boulder,CO,US,80301,40.0242,-105.2537,"Breweries,Wholesale Foods",us/co/boulder/231530thst/-1040727215,,
Ace's & Deuces Tavern,1400 5th Ave,Pittsburgh,PA,US,15219-6216,40.438542,-79.985057,breweries & brew pubs,us/pa/pittsburgh/14005thave/-1075450011,,
Acoustic Ales,1795 Hancock St,San Diego,CA,US,,32.741817,-117.183655,"Restaurant,Brewery",us/california/sandiego/1795hancockst/-1993917092,,
Acton Liquors,100 Powdermill Rd,Acton,MA,US,#REF!,42.48,-71.46,Brewery,us/westacton/acton/100powdermillrd/657624030,,
Adam Puchta Winery,1947 Frene Creek Rd,Hermann,MO,US,65041,38.6636,-91.4662,"Wineries,Vineyards,Brewers",us/mo/hermann/1947frenecreekrd/-1047508746,,
Adamstown Beverage Inc,2994 N Reading Rd,Adamstown,PA,US,19501,40.24,-76.06,"Wholesale Foods,Breweries",us/pa/adamstown/2994nreadingrd/-886930987,,
Addison's Homebrewing,1328 E Orangethorpe Ave,Fullerton,CA,US,92831,33.85919198,-117.9043883,Brewery,us/ca/fullerton/1328eorangethorpeave/-1984163528,,
Adega Wine Cellars & Cafe,8519 Fenton Street,Silver Spring,MD,US,20910,39.01,-77.02,"Brewers,Wineries",us/md/silverspring/8519fentonstreet/-1393190088,,
Adela's Place,4442 W Fort St,Detroit,MI,US,48209-3226,42.312025,-83.090841,breweries & brew pubs,us/mi/detroit/4442wfortst/-13811509,,
Adelbert's Brewery,2314 Rutland Drive #100,Austin,TX,US,78758,30.382619,-97.720067,"Attraction,Bars,Clubs and Nightlife,Brewery",us/tx/austin/2314rutlanddrive100/-1471311066,,
Adirondack Beverages Inc,701 Corporation Park,Schenectady,NY,US,12302,42.8,-73.92,"Beverage Manufacturers,Breweries",us/ny/schenectady/701corporationpark/-634150332,,
Adirondack Pub,Syr Airport,Syracuse,NY,US,,43.04,-76.14,Brewery,us/ny/syracuse/syrairport/2098450797,,
Admiral Beverage Aviation,1468 Airport Rd,Worland,WY,US,82401,43.9711,-107.9503,"Wholesale Foods,Breweries",us/wy/worland/1468airportrd/992524510,,
Adroit Theroy Brewing,404 Browning CT,Purcellville,VA,US,20132,39.1439,-77.7202,Brewers,us/va/purcellville/404browningct/-906831734,,
Adventure Brewing Co,33 Perchwood Dr,Fredericksburg,VA,US,22405,38.384518,-77.44055,Breweries,us/fred/fredericksburg/33perchwooddr/1043337872,,
Adventures In Home Brewing,6071 Jackson Rd,Ann Arbor,MI,US,48103,42.289868,-83.850184,Brewer Equipment Supplies & Services,us/lochalpine/annarbor/6071jacksonrd/918316313,,
Adventurous Brewing LLC,2338 Oak St,Bettendorf,IA,US,52722,41.56,-90.47,Brewers,us/ia/bettendorf/2338oakst/-1092983448,,
Aero Plains Brewing,117 N Handley St,Wichita,KS,US,67203,37.68,-97.34,"brewery,beer garden",us/ks/wichita/117nhandleyst/517347286,,
Aeronaut Brewing Company,14 Tyler St,Somerville,MA,US,2143,42.39,-71.1,Brewery,us/ma/somerville/14tylerst/-226096112,,
After Bev LLC,4125 S 6000 W,Salt Lake City,UT,US,84128,40.6812,-112.0335,"Beverage Manufacturers,Breweries",us/ut/saltlakecity/4125s6000w/1002723639,,
Aftershock Brewing Co.,28822 Old Town Front St #209,Temecula,CA,US,92590,33.51,-117.1,"brewery,Pub",us/ca/temecula/28822oldtownfrontst209/576051866,,
Against The Grain Brewery & Smokehouse,401 E Main St,Louisville,KY,US,40202,38.25546253,-85.74413399,Brewery,us/ky/louisville/401emainst/1523008417,,
Agner & Wolf Brewery Corp,4 Bud Way 16,Nashua,NH,US,3063,42.7767,-71.5021,Brewers,us/nh/nashua/4budway16/1322684355,,
Agrarian Ales Brewing Company,31115 W Corssroads Ln,Eugene,OR,US,97408,44.189133,-123.12815,"Breweries,Food & Drink",us/or/eugene/31115wcorssroadsln/630233583,,
Agua Santa Brewing LLC,45 Industrial Way,Buellton,CA,US,93427,34.61,-120.22,Brewers,us/ca/buellton/45industrialway/-1537640731,,
Ahnapee Brewery,99 Navarino St,Algoma,WI,US,,44.609127,-87.43505,"Breweries,Food & Drink",us/wi/algoma/99navarinost/-1767187020,,
Ai Buei,Via Schiavonetti 10,Perote,AL,US,36061,45.76632,11.73189,"Brewery,Restaurant",us/al/perote/viaschiavonetti10/-1417934753,,
Airways Brewing Beer & Bistro,320 W Harrison,Kent,WA,US,98032,47.38213347,-122.2355822,"Pub,Brewery",us/woodmontbeach/kent/320wharrison/-9955577,,
Airways Brewing Company,6644 S 196th St,Kent,WA,US,98032,47.36,-122.19,Brewery,us/woodmontbeach/kent/6644s196thst/559029259,,
Aistear Brewing LLC,12850 Gardenside Dr,North Royalton,OH,US,44133,41.3429,-81.7826,Brewers,us/oh/northroyalton/12850gardensidedr/785719507,,
Aj's Beer City Drive Thru,221 Center St,Jupiter,FL,US,33458,26.94177738,-80.09622058,Brewery,us/fl/jupiter/221centerst/599811292,,
Akasha Brewing,909 E Market St,Louisville,KY,US,40206,38.253,-85.7358,Brewers,us/ky/louisville/909emarketst/1595692587,,
Al Compass Rose Brewery,3201 Northside Dr,Raleigh,NC,US,27615,35.8839,-78.5827,Brewers,us/nc/raleigh/3201northsidedr/-389545964,,
Al Foshe,Priv. Hidalgo 26,Dayton,OH,US,45430,39.76,-84.19,"brewery,beer garden",us/oh/dayton/privhidalgo26/-916888068,,
Alameda Island Brewing Co,1716 Park St,Alameda,CA,US,94501,37.7684,-122.2389,Brewers,us/ca/alameda/1716parkst/63089440,,
Alamo Beer Company,202 Lamar St,San Antonio,TX,US,78202,29.431126,-98.47728,"Food & Drink,Breweries",us/tx/sanantonio/202lamarst/874698133,,
Alamo City Microbrewery,9800 Airport Blvd,San Antonio,TX,US,78216,29.45,-98.5,"Brewers,Wineries",us/tx/sanantonio/9800airportblvd/751387785,,
Alarmist Brewing,4055 W Peterson Ave Ste Rear,Chicago,IL,US,60646,41.85,-87.65,Brewery,us/il/chicago/4055wpetersonavesterear/1865235687,,
Alaskan Brewery and Bottling Company,5429 Shaune Dr,Juneau,AK,US,,58.357094,-134.48929,"Breweries,Food & Drink",us/ak/juneau/5429shaunedr/984485003,,
Alban Vineyards,8575 Orcutt Rd,Arroyo Grande,CA,US,93420,35.16,-120.43,"Wineries,Vineyards,Brewers",us/ca/arroyogrande/8575orcuttrd/-376687733,,
Albertina Wine Cellars,4601 County Rd 110,Hopland,CA,US,95449,38.942442,-123.183397,"Wineries,Brewers",us/ca/hopland/4601countyrd110/288979115,,
Albuquerque Brewing Co,8620 Pan American Fwy NE,Albuquerque,NM,US,87113,35.1805,-106.5821,Brewers,us/nm/albuquerque/8620panamericanfwyne/-1782636658,,
Alcala Uno Dos Cinco,C Alcala 125,Badin,NC,US,28009,35.4,-80.11,Brewery,us/nc/badin/calcala125/869010980,,
Alchemist Cold Brew LLC,263 Broadway,Milford,CT,US,6460,41.22,-73.06,Brewers,us/ct/milford/263broadway/1944060664,,
Aldus Brewing Co,555 Centennial Ave,Hanover,PA,US,17331,39.81,-76.98,Brewers,us/pa/hanover/555centennialave/-1654963767,,
Ale Industries,975 Detroit Avenue,Concord,CA,US,,37.95138,-122.028086,"Attraction,Bars,Clubs and Nightlife,Brewery",us/california/concord/975detroitavenue/-799222762,,
Ale Republic,1102 Mountain Rd NW,Albuquerque,NM,US,87102,35.0955,-106.6577,Brewers,us/nm/albuquerque/1102mountainrdnw/-545501706,,
Ale Syndicate,2601 W Diversey Ave,Chicago,IL,US,60647,41.85,-87.65,Brewery,us/il/chicago/2601wdiverseyave/997784002,,
Ale&Hop,Basses de Sant Pere 10,Cherry Hill,NJ,US,8003,39.9,-74.99,Brewery,us/nj/cherryhill/bassesdesantpere10/-1415086993,,
Alementary Limited Liability Company,58 Voorhis Ln,Hackensack,NJ,US,7601,40.9046,-74.0403,Brewers,us/nj/hackensack/58voorhisln/-976432902,,
AleSmith Brewing Company,9990 AleSmith Ct,San Diego,CA,US,92126,32.88771,-117.1495,"Attraction,Bars,Clubs and Nightlife,Brewery",us/ca/sandiego/9990alesmithct/1728617414,,
Alewerks,189 Ewell Rd,Williamsburg,VA,US,23188,37.321053,-76.73323,"Breweries,Food & Drink",us/va/williamsburg/189ewellrd/1619592818,,
Alexis Bailly Vineyard Inc,18200 Kirby Ave S,Hastings,MN,US,55033,44.6851,-92.871,"Wineries,Vineyards,Brewers",us/mn/hastings/18200kirbyaves/263544667,,
Alfalfa Farm Winery,267 Rowley Bridge Rd,Topsfield,MA,US,1983,42.63,-70.95,"Wineries,Vineyards,Brewers",us/ma/topsfield/267rowleybridgerd/1402800327,,
Alibi Ale Works Brewery,204 E Enterprise,Incline Village,NV,US,89451,39.247444,-119.9535,"Breweries,Food & Drink",us/nv/inclinevillage/204eenterprise/-1813024515,,
Alibi Tavern The,4 N E Main St,Wilbur,WA,US,WilburWA,47.72,-118.7,breweries & brew pubs,us/wa/wilbur/4nemainst/773855124,,
Alison Wines & Vineyards,271 Pitcher Ln,Red Hook,NY,US,12571,42.03008,-73.850634,"Wineries,Vineyards,Brewers",us/ny/redhook/271pitcherln/-884539143,,
All American Beer Co,9845 Saint Charles Rock Rd,Saint Ann,MO,US,63074,38.7235,-90.373,Brewers,us/mo/saintann/9845saintcharlesrockrd/1749317745,,
All Rise Brewing Company,235 N Ashland Ave,Chicago,IL,US,60607,41.85,-87.65,Brewery,us/il/chicago/235nashlandave/-2126260409,,
All Saints Brewing Company,Route 119 and Roseytown Road,Greensburg,PA,US,15601,40.31,-79.54,Brewery,us/pa/greensburg/route119roseytownroad/-571938256,,
Allagash Brewing Company,50 Industrial Way,Portland,ME,US,4103,43.66,-70.25,Brewery,us/me/portland/50industrialway/1143897644,,
Allegheny Brewery & Pub,800 Vinial St,Pittsburgh,PA,US,15212,40.43,-79.97,Brewers,us/pa/pittsburgh/800vinialst/1662845918,,
Allegheny City Brewing Company,507 Foreland St.,Greensburg,PA,US,15606,40.31,-79.54,Brewery,us/pa/greensburg/507forelandst/-2023163309,,
Allegro Vineyard,3475 Sechrist Rd,Brogue,PA,US,17309,39.86,-76.45,"Wineries,Vineyards,Brewers",us/pa/brogue/3475sechristrd/1311477092,,
Alloy Brewing Co,2700 Coon Rapids Blvd NW,Minneapolis,MN,US,55433,45.1696,-93.3356,Brewers,us/mn/minneapolis/2700coonrapidsblvdnw/894647797,,
Alltech's Lexington Brewing Co,401 Cross St,Lexington,KY,US,40508,38.0499,-84.5096,"Brewers,Wineries",us/ky/lexington/401crossst/1876701228,,
Alluvial Brewing Company,3715 W 190th St,Ames,IA,US,50014,42.077923,-93.66892,"Food & Drink,Breweries",us/ia/ames/3715w190thst/-360357777,,
Alpha Acid Brewing,121 Industrial Rd,Belmont,CA,US,94002,37.52123538,-122.2655244,Brewery,us/ca/belmont/121industrialrd/1357909029,,
Alpha Brewery Co,1409 Washington Ave,Saint Louis,MO,US,63103,38.6325,-90.1999,Brewers,us/mo/saintlouis/1409washingtonave/998094348,,
Alpha-Beta Brewing Co LLC,2802 N 179th St,Omaha,NE,US,68116,41.26,-96.01,Brewers,us/ne/omaha/2802n179thst/-172695662,,
Alpine Beer Company Pub,1347 Tavern Rd,Alpine,CA,US,91901,32.83713459,-116.7761768,"American Restaurant,Brewery",us/ca/alpine/1347tavernrd/-1292822933,,
Alpine Dog Brewing Company,1505 Ogden Street,Denver,CO,US,80218,39.76,-104.87,Brewery,us/co/denver/1505ogdenstreet/-1634413986,,
Alpine Vineyards,25904 Green Peak Rd,Monroe,OR,US,97456,44.3377,-123.4031,"Wineries,Vineyards,Brewers",us/or/monroe/25904greenpeakrd/-1826170540,,
Al's Of Hampden,4520 Valley St,Enola,PA,US,17025,40.28,-76.93,Brewers,us/pa/enola/4520valleyst/1315929042,,
Alt Brew,1808 Wright St,Madison,WI,US,53704,43.07,-89.38,Brewers,us/wi/madison/1808wrightst/-904347093,,
Alta Brewing Co,1983 Julian Ave,San Diego,CA,US,92113,32.7021,-117.1414,Brewers,us/ca/sandiego/1983julianave/225041608,,
Altamont Brewery,1042 Haywood Rd,Asheville,NC,US,28806,35.58159263,-82.60428517,Brewery,us/nc/asheville/1042haywoodrd/1954359914,,
Alte Brauerei Kasbachtal,St. Severinsberg,Janesville,WI,US,53547,42.68,-89.01,Brewery,us/wi/janesville/stseverinsberg/1671195375,,
Alte Durlacher Brauerei - Zum Genter,Ochsentorstr. 18,Aubrey,TX,US,76227,33.3,-96.98,"Brewery,Restaurant",us/tx/aubrey/ochsentorstr18/568489666,,
Altech Brewery,412 Cross St,Lexington,KY,US,40508,38.0498,-84.5091,Brewers,us/ky/lexington/412crossst/160764105,,
Alter Brewing Company,2300 Wisconsin Ave #213,Downers Grove,IL,US,60515,41.79,-88.01,Brewery,us/il/downersgrove/2300wisconsinave213/1119989363,,
Altmeyer & Lewis Brewing Co,15898 N State Highway 123,San Marcos,TX,US,78666,29.88,-97.92,Brewers,us/tx/sanmarcos/15898nstatehighway123/-893955683,,
Altus Brewing Co LLC,400 E Court Ave 110,Des Moines,IA,US,50309,41.57,-93.61,Brewers,us/ia/desmoines/400ecourtave110/-504212551,,
Alvarado Street Brewery & Grill,426 Alvarado St,Monterey,CA,US,93940,36.599342,-121.894714,"Brewery,Restaurant",us/ca/monterey/426alvaradost/-283703417,,
Alvarado Street Brewing,1315 Dayton St,Salinas,CA,US,93901,36.6486,-121.631,Brewers,us/ca/salinas/1315daytonst/477847597,,
Always Brewing,19180 Grand River Ave,Detroit,MI,US,48223,42.40569,-83.230222,Brewers,us/mi/detroit/19180grandriverave/732687025,,
Amador Brewing Co,9659 Main St,Plymouth,CA,US,95669,38.480506,-120.853364,Brewers,us/ca/plymouth/9659mainst/302318574,,
Amalthea Cellars Farm Winery,267 Hayes Mill Rd Ste A,Atco,NJ,US,8004,39.76,-74.85,"Wineries,Vineyards,Brewers",us/nj/atco/267hayesmillrdstea/-585021313,,
Amanecer Tropical Corp,137 Broadway,Huntington Station,NY,US,11746,40.84,-73.4,Brewers,us/ny/huntingtonstation/137broadway/894834376,,
A'maurice Cellars,178 Vineyard Ln,Walla Walla,WA,US,99362,46.0872,-118.2018,"Wineries,Vineyards,Brewers",us/wa/wallawalla/178vineyardln/152068806,,
American Beverage Depot Llc,7300 Nw 77th St,Miami,FL,US,33166,25.8433,-80.317,"Beverage Manufacturers,Breweries",us/fl/miami/7300nw77thst/883661045,,
American Beverage Marketers,510 Ne M 291 Hwy,Lees Summit,MO,US,64063,38.9116,-94.3625,"Beverage Manufacturers,Breweries",us/mo/leessummit/510nem291hwy/1272660459,,
American Brewers Inc,3408 Miller Rd 309,Kalamazoo,MI,US,49001,42.2667,-85.5379,Brewers,us/mi/kalamazoo/3408millerrd309/565495044,,
American Cold Brew,32 E Airline Hwy,Kenner,LA,US,70062,29.981,-90.2744,Brewers,us/la/kenner/32eairlinehwy/-386456058,,
American Fresh Brewhouse,310 Canal St,Somerville,MA,US,2145,42.394135,-71.08053,"Restaurant,Pubs,Brewery",us/ma/somerville/310canalst/1195686416,,
American Fresh Taproom,300 Grand Union Blvd,Somerville,MA,US,2145,42.39486,-71.08112,"Restaurant,American,Pubs,Brewery",us/ma/somerville/300grandunionblvd/1461658160,,
American Home Brewing Supply Inc,9295 Chesapeake Dr,San Diego,CA,US,92123,32.837446,-117.128434,Brewer Equipment Supplies & Services,us/ca/sandiego/9295chesapeakedr/852367856,,
American Sky Brewing Co,1510 Swasey St,Hudson,WI,US,54016,44.955257,-92.7385,"Breweries,Food & Drink",us/burkhardt/hudson/1510swaseyst/1921794943,,
Amerisports Brew Pub,3200 Ameristar Dr,Kansas City,MO,US,64161,39.15101932,-94.4851642,Brewery,us/mo/kansascity/3200ameristardr/903975596,,
Amherst Brewing Co Inc,36 N Pleasant St,Amherst,MA,US,1002,42.37,-72.52,Brewers,us/ma/amherst/36npleasantst/2133167318,,
Amici Cellars,1109 Hudson Ave,Saint Helena,CA,US,94574,38.4962,-122.4702,"Wineries,Vineyards,Brewers",us/ca/sainthelena/1109hudsonave/-1691853443,,
Ammonoosuc Beer Project LLC,18 Mill St,Littleton,NH,US,3561,44.306,-71.7712,Brewers,us/nh/littleton/18millst/563888456,,
Amos Howard's Restaurant,2828 Us Highway 70 SW,Hickory,NC,US,28602,35.7212,-81.3872,Brewers,us/nc/hickory/2828ushighway70sw/2120451837,,
Amplified Ale Works,4150 Mission Blvd,San Diego,CA,US,92109,32.7912903,-117.2544098,"Restaurant,Brewery",us/ca/sandiego/4150missionblvd/-677539445,,
Anacapa Brewing Company,472 E Main St,Ventura,CA,US,93001,34.280678,-119.29359,Brewery,us/laconchita/ventura/472emainst/1681317440,,
Anacortes Brewery,320 Commercial Ave,Anacortes,WA,US,98221,48.519374,-122.61286,Brewers,us/guemes/anacortes/320commercialave/1828729722,,
Anasazi Fields Winery,26 Cam De Los Pueblitos,Placitas,NM,US,87043,35.326,-106.4338,"Wineries,Brewers",us/nm/placitas/26camdelospueblitos/93368410,,
Anc Inc,3150 Sunrise Ave,Las Vegas,NV,US,89101,36.1628,-115.1035,"Beverage Manufacturers,Breweries",us/nv/lasvegas/3150sunriseave/96726,,
Anchor Brewery at The Yard,100 Terry A Francois Blvd,San Francisco,CA,US,94158,37.77,-122.41,"brewery,beer garden",us/ca/sanfrancisco/100terryfrancoisblvd/972244738,,
Anchor Brewing Company,1705 Mariposa Street,Potrero Hill,CA,US,,37.763155,-122.4008,"Attraction,Bars,Clubs and Nightlife,Brewery",us/california/potrerohill/1705mariposastreet/-1755959598,,
Anchorage Brewing Company,148 W 91st St,Anchorage,AK,US,99515,61.138794,-149.88216,"Food & Drink,Breweries",us/ak/anchorage/148w91stst/923367815,,
Anchorage Saloon The,12816 Us Highway 19,Hudson,FL,US,HudsonFL,28.35,-82.69,breweries & brew pubs,us/fl/hudson/12816ushighway19/1166757271,,
Ancien Wines,4047 E 3rd Ave,Napa,CA,US,94558,38.55,-122.15,"Wineries,Brewers",us/ca/napa/4047e3rdave/-179211826,,
Ancient City Brewing Bar,18 Cathedral Pl,Saint Augustine,FL,US,32084,29.8926,-81.3115,Brewers,us/fl/saintaugustine/18cathedralpl/-850457386,,
Anclote Brew LLC,1600 Lonesome Pine Ln,Tarpon Springs,FL,US,34689,28.1417,-82.7318,Brewers,us/fl/tarponsprings/1600lonesomepineln/1194300940,,
Anderson Valley Brewing Co,17700 Hwy 253,Boonville,CA,US,95415,39.0005,-123.3556,"Brewers,Wineries",us/ca/boonville/17700hwy253/-800937005,,
Anderson Valley Vineyards,4920 Rio Grande Blvd NW,Albuquerque,NM,US,87107,35.1469,-106.6612,"Wineries,Vineyards,Brewers",us/nm/albuquerque/4920riograndeblvdnw/1995553410,,
Andrews Brewing Company,575 Aquone Rd,Andrews,NC,US,28901,35.199078,-83.8133,"Food & Drink,Breweries",us/nc/andrews/575aquonerd/282346755,,
Angel City Brewery,216 S Alameda St,Los Angeles,CA,US,90012,33.97,-118.24,Brewery,us/ca/losangeles/216salamedast/1692353214,,
Angeles Brewing Supplies,103 W 1st St,Port Angeles,WA,US,98362,48.119099,-123.433723,Brewers,us/fairholm/portangeles/103w1stst/-1013309154,,
Anglim Winery,740 Pine St,Paso Robles,CA,US,93446,35.6222,-120.6885,"Wineries,Brewers",us/ca/pasorobles/740pinest/-1385278970,,
Angry Chair Brewing,6401 N Florida Ave,Tampa,FL,US,33604,28.0051,-82.4592,"Brewers,Brewery",us/fl/tampa/6401nfloridaave/373103964,,
Angry Erik Brewing,10 Millpond Dr 8,Lafayette,NJ,US,7848,41.0937,-74.7168,Brewers,us/nj/lafayette/10millponddr8/-1733742096,,
Angry Hank's Micro Brewery,2405 1st Ave N,Billings,MT,US,59101,45.784554,-108.50142,"Food & Drink,Breweries",us/mt/billings/24051staven/1675190690,,
Angry Horse Brewing,Whittier Blvd,Montebello,CA,US,90640,34.0087,-118.1018,"Brewers,Restaurant",us/ca/montebello/whittierblvd/202624324,,
Angry Inch Brewing,20841 Holyoke Ave,Lakeville,MN,US,55044,44.67,-93.24,Brewery,us/mn/lakeville/20841holyokeave/1775769557,,
Angry Orchard Innovation Cider House,2241 Albany Post Rd,Walden,NY,US,12586,41.55,-74.18,Brewery,us/ny/walden/2241albanypostrd/118197572,,
Anheuser Busch Baldwinsville,2885 Belgium Rd,Baldwinsville,NY,US,13027,43.1624,-76.3097,Brewers,us/ny/baldwinsville/2885belgiumrd/-1183174604,,
Anheuser Busch Beverage,333 S Kirkwood Rd 202,Saint Louis,MO,US,63122,38.5779,-90.4071,Brewers,us/mo/saintlouis/333skirkwoodrd202/2117407695,,
Anheuser Busch Inc.,2945 Townsgate Rd,Westlake Village,CA,US,91361,34.19,-118.82,Brewery,us/thousandoaks/westlakevillage/2945townsgaterd/-1606128816,,
Anheuser-Busch Brewery Tours,221 Daniel Webster Hwy,Merrimack,NH,US,3054,42.8288,-71.4912,Brewers,us/nh/merrimack/221danielwebsterhwy/-1828818559,,
Anheuser-Busch Co,2800 S 9th St,Saint Louis,MO,US,63118,38.5993,-90.2102,Brewers,us/mo/saintlouis/2800s9thst/-1606128816,,
Anheuser-busch Co,3101 Busch Dr,Fairfield,CA,US,94534,38.236362,-122.091866,Brewers,us/ca/fairfield/3101buschdr/-1606128816,,
Anheuser-Busch Co,510 Food Center Dr,Bronx,NY,US,10474,40.81,-73.8763,Brewers,us/ny/bronx/510foodcenterdr/-1606128816,,
Anheuser-busch Inc,6455 E Johns Xing 375,Duluth,GA,US,30097,34.062726,-84.16923,Brewers,us/ga/duluth/6455ejohnsxing375/-1606128816,,
Anheuser-Busch Inc,221 Daniel Webster Hwy,Merrimack,NH,US,3054,42.8288,-71.4912,"Brewers,Wineries",us/nh/merrimack/221danielwebsterhwy/-1606128816,,
Anheuser-busch Inc,1800 W S Loop Ste 1100,Houston,TX,US,77027,29.7491,-95.4566,"Brewers,Wineries",us/tx/houston/1800wsloopste1100/-1606128816,,
Anheuser-Busch Inc,1201 K St Ste 730,Sacramento,CA,US,95814,38.5787,-121.4909,"Brewers,Wineries",us/ca/sacramento/1201kstste730/-1606128816,,
Anheuser-Busch Inc,100 Busch Dr NE,Cartersville,GA,US,30121,34.2535,-84.7865,"Brewers,Wineries",us/ga/cartersville/100buschdrne/-1606128816,,
Anheuser-Busch Inc,2829 Townsgate Rd Ste 350,Westlake Village,CA,US,91361,34.1542,-118.8229,"Brewers,Wineries",us/ca/westlakevillage/2829townsgaterdste350/-1606128816,,
Anheuser-Busch Inc,15420 Cobalt St,Sylmar,CA,US,91342,34.32,-118.38,"Brewers,Wineries",us/ca/sylmar/15420cobaltst/-1606128816,,
Annex By Epic Brewing,1048 E 2100 S,Salt Lake City,UT,US,84106,40.7253,-111.8613,Brewers,us/ut/saltlakecity/1048e2100s/-125010320,,
Another Road Brewing,1175 8th Ave,Marion,IA,US,52302,42.03385638,-91.59744623,Brewery,us/midway/marion/11758thave/-153362019,,
Another Road Brewing,631 9th St,Marion,IA,US,52302,42.0327,-91.6004,"Brewers,Brewery",us/ia/marion/6319thst/-153362019,,
Anubis Pool,López del Vallado,Hialeah,FL,US,33010,25.86,-80.29,Brewery,us/fl/hialeah/lpezdelvallado/-1191329728,,
Apartment 25 Beer Works,200 E Laurel St,Fort Collins,CO,US,80524,40.55,-105.06,Brewery,us/co/fortcollins/200elaurelst/-1046409219,,
Apocalypto Brewing Co.,Iroquois Rd,West Hartford,CT,US,#REF!,41.75,-72.74,Brewery,us/bishopscorner/westhartford/iroquoisrd/-1342288608,,
Appalachian Brewing Company,50 W Third Ave,Collegeville,PA,US,19426,40.18,-75.45,Brewery,us/pa/collegeville/50wthirdave/1090616569,,
Appalachian Brewing Company,259 Steinwehr Ave,Gettysburg,PA,US,17325,39.83,-77.23,"Brewery,American Restaurant",us/pa/gettysburg/259steinwehrave/1090616569,,
Appalachian Brewing Company - Gateway,Presidential Circle,Gettysburg,PA,US,17325,39.83,-77.23,Brewery,us/pa/gettysburg/presidentialcircle/-598085845,,
Appalachian Mountain Brewery,Appalachian State Blvd,Boone,NC,US,28607,36.20340713,-81.66846966,Brewery,us/deerfield/boone/appalachianstateblvd/-1366770335,,
Apple Blossom Brewing Co,1550 E Zion Rd,Fayetteville,AR,US,72703,36.131974,-94.117678,Brewers,us/ar/fayetteville/1550ezionrd/1840952567,,
Aqua Marine Springs LLC,550 S Wisconsin Ave,Gaylord,MI,US,49735,45.02,-84.67,Brewers,us/mi/gaylord/550swisconsinave/-94169400,,
Aqueduct Brewery,529 Grant St,Akron,OH,US,44311,41.0689,-81.5175,Brewers,us/oh/akron/529grantst/165236584,,
Arabian Bar & Package Store,14380 th Ave,Opa Locka,FL,US,33054,25.9052,-80.2441,Brewers,us/fl/opalocka/14380thave/-204514710,,
Arbor Hill Grapery,6461 State Route 64,Naples,NY,US,14512,42.707,-77.3803,"Wineries,Vineyards,Brewers",us/ny/naples/6461stateroute64/-362252547,,
Arcadia Brewing Co,701 W Michigan Ave,Kalamazoo,MI,US,49007,42.2911,-85.5939,Brewers,us/mi/kalamazoo/701wmichiganave/-784151245,,
Arcadia Brewing Company Kalamazoo,701 E Michigan Ave,Kalamazoo,MI,US,49007,42.29519337,-85.57161961,Brewery,us/mi/kalamazoo/701emichiganave/-1992691023,,
Arcana Brewing Co,5621 Palmer Way,Carlsbad,CA,US,92010,33.13,-117.3,Brewery,us/ca/carlsbad/5621palmerway/187819806,,
Arcana Brewing Company,5621 Palmer Way,Carlsbad,CA,US,92010,33.14025574,-117.2738375,Brewery,us/ca/carlsbad/5621palmerway/-1070155873,,
Arch Rock Brewery,Hunter Creek Loop,Gold Beach,OR,US,,42.38581,-124.41591,"Breweries,Food & Drink",us/or/goldbeach/huntercreekloop/24387599,,
Archery Summit,18955 NE Archery Summit Rd,Dayton,OR,US,97114,45.19,-123.07,"Wineries,Vineyards,Brewers",us/or/dayton/18955nearcherysummitrd/738277635,,
Archie's Little River Ale Hse,27 Lafayette Sq,Haverhill,MA,US,1832,42.78,-71.08,Brewers,us/ma/haverhill/27lafayettesq/1878474901,,
Arclight Brewery,544 N Main St,Watervliet,MI,US,,42.191303,-86.259415,"Food & Drink,Breweries",us/mi/watervliet/544nmainst/-836394330,,
Area 51 Brewery,7123 Arlington Ave,Riverside,CA,US,92503,33.99,-117.38,Brewery,us/ca/riverside/7123arlingtonave/-1215947487,,
Area 51 Craft Brewery,406 E Margarita Rd,Rialto,CA,US,92376,34.1222,-117.3637,Brewers,us/ca/rialto/406emargaritard/-524854925,,
Argus Brewery,11314 S Front Ave,Chicago,IL,US,60628,41.85,-87.65,"Brewery,Brewers",us/il/chicago/11314sfrontave/-141314250,,
Argyle Brewing,1800 W Cuyler Ave,Chicago,IL,US,60613,41.9553,-87.6744,Brewers,us/il/chicago/1800wcuylerave/-1130159484,,
Argyle Brewing Company,One Main St,Greenwich,NY,US,12834,43.087673,-73.49674,"Breweries,Food & Drink",us/battenville/greenwich/onemainst/112524665,,
Ariel Vineyards,860 Napa Valley Corporate Way Ste C,Napa,CA,US,94558,38.2505,-122.2736,"Wineries,Brewers",us/ca/napa/860napavalleycorporatewaystec/561629424,,
Arizona Wilderness Brewing Co,721 North Arizona Ave,Gilbert,AZ,US,,33.363113,-111.841157,"Attraction,Bars,Clubs and Nightlife,Brewery",us/az/gilbert/721northarizonaave/1416961298,,
Arkane Aleworks Inc,2480 E Bay Dr 23,Largo,FL,US,33771,27.9165,-82.7607,Brewers,us/fl/largo/2480ebaydr23/1147542886,,
Armada Brewing LLC,250 Bradley St,East Haven,CT,US,6512,41.29,-72.86,Brewers,us/ct/easthaven/250bradleyst/292850846,,
Armadillo Ale Works,2823 Saint Louis St,Dallas,TX,US,75226,32.79,-96.76,Brewers,us/tx/dallas/2823saintlouisst/-1216101619,,
Armistice Brewing Co,845 Marina Bay Pkwy 1,Richmond,CA,US,94804,37.9219,-122.3474,Brewers,us/ca/richmond/845marinabaypkwy1/-193703453,,
Armoured Cow Brewing Co Inc,1000 Music Factory Blvd C,Charlotte,NC,US,28206,35.2388,-80.8453,Brewers,us/nc/charlotte/1000musicfactoryblvdc/528288004,,
Armstrong Brewing Co,330 Littlefield Ave,San Francisco,CA,US,94102,37.77,-122.41,Brewers,us/ca/sanfrancisco/330littlefieldave/199661645,,
Armstrong Brewing Company,415 Grand Ave,South San Francisco,CA,US,94080,37.6556423,-122.4131206,Brewery,us/ssf/southsanfrancisco/415grandave/257958800,,
Arrow Brewing Co,1161 W Henri De Tonti Blvd,Tontitown,AR,US,72770,36.176851,-94.255521,Brewers,us/ar/tontitown/1161whenridetontiblvd/-1666860169,,
Arrow Lodge Brewing,720 E Arrow Hwy,Covina,CA,US,91722,34.09,-117.9,Brewery,us/ca/covina/720earrowhwy/-1145660054,,
Arrowhead Ales Brewing Co,2101 Calistoga Dr,New Lenox,IL,US,60451,41.482,-87.9573,Brewers,us/il/newlenox/2101calistogadr/1636311646,,
Arrowhead Wine Cellars,12073 E Main Rd,North East,PA,US,16428,42.2297,-79.7883,"Wineries,Brewers",us/pa/northeast/12073emainrd/-142647154,,
Arroyo Robles Winery,1317 Park St,Paso Robles,CA,US,93446,35.628114,-120.690467,"Wineries,Brewers",us/heritagernch/pasorobles/1317parkst/-1707605431,,
Arthur Earl Winery,90 Easy St,Buellton,CA,US,93427,34.61,-120.22,"Wineries,Brewers",us/ca/buellton/90easyst/2132221096,,
Artifact Brewing,1660 Blue Rock St,Cincinnati,OH,US,45223,39.1605,-84.5423,Brewers,us/oh/cincinnati/1660bluerockst/805782926,,
Artifact Cider,270 Albany St,Springfield,MA,US,1105,42.11,-72.53,Brewery,us/ma/springfield/270albanyst/649536345,,
Artifex Brewing Co,919 Calle Amanecer A,San Clemente,CA,US,92673,33.4496,-117.6085,Brewers,us/ca/sanclemente/919calleamanecera/-403665715,,
Artisanal Brewing Ventures,2651 Bagby Ln B,Charlotte,NC,US,28208,35.2359,-80.9124,Brewers,us/nc/charlotte/2651bagbylnb/-1380578853,,
Artisan's Brewery and Italian Grill,1171 Hooper Ave,Toms River,NJ,US,#REF!,39.977222,-74.18229,Brewery,us/dovertownship/tomsriver/1171hooperave/1812538479,,
Artiste Wines Llc,3569 Sagunto St,Santa Ynez,CA,US,93460,34.6132,-120.0811,"Wineries,Brewers",us/ca/santaynez/3569saguntost/252827212,,
Arvada Beer Company,5600 Olde Wadsworth Blvd,Arvada,CO,US,80004,39.79931,-105.08125,"Restaurant,Brewery",us/colorado/arvada/5600oldewadsworthblvd/1936691348,,
Asbury Park Brewery,1151 Deal Rd,Asbury Park,NJ,US,7712,40.22,-74.01,Brewers,us/nj/asburypark/1151dealrd/-1938097804,,
Ascension Brewery,42000 Grand River Ave,Novi,MI,US,48375,42.4773,-83.4592,Brewers,us/mi/novi/42000grandriverave/-1604547141,,
Asgard Tavern,1300 N Northlake Way,Seattle,WA,US,98103,47.6483,-122.3424,Brewers,us/wa/seattle/1300nnorthlakeway/-63183274,,
Ash & Elm Cider Co,2104 E Washington St,Indianapolis,IN,US,46201,39.77,-86.14,Brewery,us/in/indianapolis/2104ewashingtonst/1880025467,,
Ashain Pk Assoc,250 Martin St,Birmingham,MI,US,48009,42.5461,-83.2167,Brewers,us/mi/birmingham/250martinst/887057898,,
Asher Brewing Company,4699 Nautilus Ct S,Boulder,CO,US,80301,40.06031553,-105.2059833,Brewery,us/co/boulder/4699nautiluscts/-624396992,,
Ashford House,7959 W 159th St,Tinley Park,IL,US,60477,41.57,-87.8,Brewery,us/il/tinleypark/7959w159thst/1742823823,,
Ashland & Highland,5637 Woerner Temple Rd,Dublin,OH,US,43016-7188,40.08398,-83.14172,breweries & brew pubs,us/oh/dublin/5637woernertemplerd/-1887781138,,
Ashland Vineyards & Winery,2775 E Main St,Ashland,OR,US,97520,42.1913,-122.666,"Wineries,Vineyards,Brewers",us/or/ashland/2775emainst/1938986078,,
Ashtown Brewing Company,1175 Hudson St,Longview,WA,US,98632,46.19,-123.05,Brewery,us/wa/longview/1175hudsonst/-1138468635,,
Asian Brewing Co LLC,1330 N Forest St,Bellingham,WA,US,98225,48.7484,-122.4745,Brewers,us/wa/bellingham/1330nforestst/-666055108,,
Aslin Brewery,257 Sunset Park Dr,Herndon,VA,US,20170,38.95637,-77.37498,"Breweries,Food & Drink",us/va/herndon/257sunsetparkdr/1464634155,,
Aspen Brewing Company,304 E Hopkins Ave,Aspen,CO,US,81611,39.190106,-106.820376,Brewery,us/co/aspen/304ehopkinsave/-123093948,,
Aspetcuk Brew Lab,3389 Fairfield Ave,Bridgeport,CT,US,6605,41.18,-73.19,Brewers,us/ct/bridgeport/3389fairfieldave/202132575,,
Aspirations Winery,5116 E Fowler Ave,Tampa,FL,US,33617,28.0546,-82.3993,"Wineries,Brewers",us/fl/tampa/5116efowlerave/606655317,,
Ass Clown Brewing Company,10620 Bailey Rd,Cornelius,NC,US,28031,35.4577666,-80.85505766,Brewery,us/nc/cornelius/10620baileyrd/1856919673,,
Assawoman Bay Brewing Co,4435 Coastal Hwy,Ocean City,MD,US,21842,38.3707,-75.0708,Brewers,us/md/oceancity/4435coastalhwy/-367123128,,
Associated Beverage Corp,1735 Julia Goldbach Ave,Ronkonkoma,NY,US,11779,40.8,-73.12,"Beverage Manufacturers,Breweries",us/ny/ronkonkoma/1735juliagoldbachave/1318086533,,
Astoria Brewing Co.,144 11th St,Astoria,OR,US,97103,46.19025869,-123.831425,Brewery,us/or/astoria/14411thst/-1021852349,,
Atco Brewing Company,302 White Horse Pike,Atco,NJ,US,#REF!,39.76,-74.85,Brewery,us/westatco/atco/302whitehorsepike/305656444,,
Atlas Brew Works,2052 W Virginia Ave NE #102,Washington,DC,US,20002,38.89,-77.03,Brewery,us/dc/washington/2052wvirginiaavene102/-1004580971,,
Atlas Brewing Co,2747 N Lincoln Ave,Chicago,IL,US,60614,41.83,-87.68,Brewers,us/il/chicago/2747nlincolnave/1366537397,,
Atwater Brewery,237 Joseph Campau St,Detroit,MI,US,48207,42.33716188,-83.01855308,Brewery,us/mi/detroit/237josephcampaust/564332518,,
Atwater Brewery in GR,201 Michigan St NW,Grand Rapids,MI,US,49503,42.96,-85.65,Brewery,us/mi/grandrapids/201michiganstnw/128059830,,
August Schell Brewery,1860 Schell Rd,New Ulm,MN,US,56073,44.289097,-94.44995,"Breweries,Food & Drink",us/searles/newulm/1860schellrd/1796153818,,
Augusta Brewing Co,5521 Water St,Augusta,MO,US,63332,38.57,-90.88,"Brewers,Wineries",us/mo/augusta/5521waterst/212783906,,
Augustina's Winery,20 E Lakeview Dr 103,Boulder,CO,US,80304,40.0602,-105.2836,"Wineries,Brewers",us/co/boulder/20elakeviewdr103/812292394,,
Austin Beer Garden Brewing Co,1305 W Oltorf St,Austin,TX,US,78704,30.2452,-97.769,Brewers,us/tx/austin/1305woltorfst/-1255111839,,
Austin Beerworks,3009 Industrial Terrace,Austin,TX,US,,30.37976,-97.730224,"Attraction,Bars,Clubs and Nightlife,Brewery",us/texas/austin/3009industrialterrace/1465865496,,
Austin Street Brewery,1 Industrial Way 8,Portland,ME,US,4103,43.7033,-70.3204,Brewers,us/me/portland/1industrialway8/143925389,,
Automatic Brewing Co,3416 Adams Ave,San Diego,CA,US,92116,32.7634,-117.1201,Brewers,us/ca/sandiego/3416adamsave/-1274662123,,
Automotive Brewery,495 N US Highway 17 92 Unit 109,Longwood,FL,US,32750,28.7054,-81.3265,Brewers,us/fl/longwood/495nushighway1792unit109/939712661,,
Avanti Winery,9046 W. Bowles Ave.,Littleton,CO,US,80123,39.6092,-105.0991,"Brewers,Wineries",us/co/littleton/9046wbowlesave/1719148519,,
Avenue Beverage,9115 Mentor Ave,Mentor,OH,US,44060,41.6778,-81.3133,"Beverage Manufacturers,Breweries",us/oh/mentor/9115mentorave/528673069,,
Avenue Pub,353 E Cuyahoga Falls Ave,Akron,OH,US,AkronOH,41.08,-81.52,breweries & brew pubs,us/oh/akron/353ecuyahogafallsave/-1327264369,,
Avery Brewing Co,5763 Arapahoe Ave E,Boulder,CO,US,80303,40.0148,-105.219,Brewers,us/co/boulder/5763arapahoeavee/353201833,,
Aviator Brewing Company,209 Technology Park Ln,Fuquay Varina,NC,US,27526,35.61962831,-78.80797863,Brewery,us/nc/fuquayvarina/209technologyparkln/-1743747705,,
Avondale Brewing Company,201 41st St S,Birmingham,AL,US,35222,33.52,-86.79,Brewery,us/al/birmingham/20141ststs/1685035239,,
Axiom Brewing Co,6503 W Frye Rd,Chandler,AZ,US,85226,33.2984,-111.9535,Brewers,us/az/chandler/6503wfryerd/1956720944,,
Axle Brewing Co Livernois Tap,567 Livernois St,Ferndale,MI,US,48220,42.45,-83.13,"brewery,beer garden",us/mi/ferndale/567livernoisst/-636130558,,
Azienda Agricola Francesco De Tacchi,"Via Giuseppe Garibaldi, 54",Alexander City,AL,US,35010,32.92,-85.93,Brewery,us/al/alexandercity/viagiuseppegaribaldi54/-845007809,,
Aztec Brewing Co.,2330 La Mirada Dr Ste 300,Vista,CA,US,92081,33.18,-117.24,Brewery,us/ca/vista/2330lamiradadrste300/1142578247,,
B & A Variety Store,3211 Prospect Ave E,Cleveland,OH,US,44115,41.5018,-81.6649,"Beverage Manufacturers,Breweries",us/oh/cleveland/3211prospectavee/-1498987781,,
B & G Beverage,1370 Mentor Ave,Painesville,OH,US,44077,41.7038,-81.2739,"Beverage Manufacturers,Breweries",us/oh/painesville/1370mentorave/-1647382588,,
B & N Package Store,1308 E Main St,Waterbury,CT,US,6705,41.55,-73.03,"Beverage Manufacturers,Breweries",us/ct/waterbury/1308emainst/-2073199961,,
B B's Corner Pub,230 Cousin St,Slidell,LA,US,70458,30.2741,-89.7829,Brewers,us/la/slidell/230cousinst/1604661685,,
B C T Brewing Project,3585 Main Saint 208,Riverside,CA,US,92501,33.98414,-117.373126,Brewers,us/ca/riverside/3585mainsaint208/1630653068,,
B Chord Brewing Co,19481 Foggy Bottom Rd,Bluemont,VA,US,20135,39.075,-77.8323,Brewers,us/va/bluemont/19481foggybottomrd/1400712486,,
B J's Restaurant & Brewery,2917 E Eastland Ctr Dr,West Covina,CA,US,91791,34.07233,-117.88356,"Restaurant,American,Brewery",us/ca/westcovina/2917eeastlandctrdr/1403924866,,
B K S Bears Brew Llc,511 Hidden Pond Dr,Fordland,MO,US,65652,37.226814,-92.942252,Brewers,us/mo/fordland/511hiddenponddr/2095498935,,
B S Brewing,1408 Old Lehmann Rd,Seguin,TX,US,78155,29.6909,-97.9048,Brewers,us/tx/seguin/1408oldlehmannrd/1959510575,,
B&o Brewery,5230 N11th,Lincoln,NE,US,68521,40.81,-96.68,Brewery,us/ne/lincoln/5230n11th/-716767171,,
B3 Brewing Co LLC,105 S Howard St,York,PA,US,17401,39.96,-76.73,Brewers,us/pa/york/105showardst/2088798831,,
B-52 Brewing,12470 Milroy Ln,Montgomery,TX,US,77356,30.3394,-95.5513,Brewers,us/tx/montgomery/12470milroyln/-2001393599,,
B-52 Brewing Company,12470 Milroy Ln,Conroe,TX,US,77304,30.32,-95.47,Brewery,us/tx/conroe/12470milroyln/-108955364,,
Bacardi,12200 N Main St,Jacksonville,FL,US,32218,30.33,-81.65,Brewery,us/fl/jacksonville/12200nmainst/-347493766,,
Bacchus Brewing Company,15 Ellis Dr,Dryden,NY,US,13053,42.49972,-76.30041,Brewery,us/ny/dryden/15ellisdr/920163428,,
Bacchus Wine Storage,6620 Southwest Fwy Ste 236,Houston,TX,US,77074,29.76,-95.38,"Brewers,Wineries",us/tx/houston/6620southwestfwyste236/-1382095829,,
Back 2 Basics Homebrew Supplies,40 Unit 7/ Fourth Rd,Armadale,WA,US,,-32.1521033,116.0147678,Breweries,us/wa/armadale/40unit7fourthrd/-1948378850,,
Back Bay Brewing Co,630 N Witchduck Rd,Virginia Beach,VA,US,23462,36.8558,-76.1508,Brewers,us/va/virginiabeach/630nwitchduckrd/-540934547,,
Back Pew Brewing Co,26452 Sorters McClellan Rd,Porter,TX,US,77365,30.0644,-95.2626,Brewers,us/tx/porter/26452sortersmcclellanrd/-1122660251,,
Back Street Brewery,78722 Highway 111,La Quinta,CA,US,92253,33.65,-116.27,Brewers,us/ca/laquinta/78722highway111/1786752576,,
Backbay Trading Ltd,11800 Wills Rd 120,Alpharetta,GA,US,30009,34.0582,-84.3104,"Beverage Manufacturers,Breweries",us/ga/alpharetta/11800willsrd120/-1749997586,,
Backcountry Brewery,720 Main St,Frisco,CO,US,80443,39.57635,-106.092865,"Brewery,Restaurant",us/co/frisco/720mainst/-1241578117,,
Backcountry Brewery & Taproom,3313 Enterprise Dr,Rowlett,TX,US,75088,32.9,-96.55,Brewers,us/tx/rowlett/3313enterprisedr/1349165347,,
Backpocket Brew Pub,415 3rd St SE,Cedar Rapids,IA,US,52401,41.9767,-91.6649,Brewers,us/ia/cedarrapids/4153rdstse/2026944222,,
Backroad Brewery LLC,18149 Cleveland St,Carlisle,IA,US,50047,41.51,-93.48,Brewers,us/ia/carlisle/18149clevelandst/1928920771,,
Backshore Brewing Co,913 Atlantic Ave,Ocean City,MD,US,21842,38.3402,-75.0804,Brewers,us/md/oceancity/913atlanticave/1473451258,,
Backstreet Brewery,78722 Highway 111,La Quinta,CA,US,92253,33.65,-116.27,Brewers,us/ca/laquinta/78722highway111/1786752576,,
Backward Flag Brewing Co,699 Challenger Way D5,Forked River,NJ,US,8731,39.84,-74.19,Brewers,us/nj/forkedriver/699challengerwayd5/-1509809423,,
Backwoods Brewing,1111 Wind River Hwy,Carson,WA,US,98610,45.72899323,-121.8198519,Brewery,us/wa/carson/1111windriverhwy/460124129,,
Bad Beat Brewing,7380 Eastgate Rd Ste 110,Henderson,NV,US,89011,36,-114.96,Brewery,us/nv/henderson/7380eastgaterdste110/-2132816379,,
BAD Brewing Co.,440 S Jefferson St,Mason,MI,US,48854,42.5786,-84.4434,"Brewery,Brewers",us/mi/mason/440sjeffersonst/1316159483,,
Bad Frog Brewery Co,1093 A1a Beach Blvd 346,Saint Augustine,FL,US,32080,29.8277,-81.2713,Brewers,us/fl/saintaugustine/1093a1abeachblvd346/293344225,,
Bad Jimmys Brewing Company,4358 Leary Way N W,Seattle,WA,US,98107,47.660273,-122.365772,Breweries,us/wa/seattle/4358learywaynw/1840076571,,
Bad Lab Beer Co,460 High St 1,Somersworth,NH,US,3878,43.25,-70.88,Brewers,us/nh/somersworth/460highst1/1111165848,,
Bad Martha Farmer���s Brewery,Upper Main St,Edgartown,MA,US,2539,41.38,-70.53,Brewery,us/ma/edgartown/uppermainst/-390063794,,
Bad Seed Cidery,43 Baileys Gap Rd,Highland,NY,US,12528,41.71,-73.96,Brewery,us/ny/highland/43baileysgaprd/-227027100,,
Bad Tom Brewing,4720 Eastern Ave,Cincinnati,OH,US,45226,39.09,-84.51,Brewery,us/oh/cincinnati/4720easternave/-1609329709,,
Badass Backyard Brewing,1415 N Argonne Rd,Spokane,WA,US,99212,47.65,-117.31,Brewers,us/wa/spokane/1415nargonnerd/-78931965,,
Baderbrau Brewing Co,40 E Chicago Ave 373,Chicago,IL,US,60611,41.8969,-87.6266,Brewers,us/il/chicago/40echicagoave373/-1611357206,,
Badger Hill Brewing Company,4571 Vally Industrial Blvd S,Shakopee,MN,US,55379,44.79377,-93.46113,"Breweries,Food & Drink",us/mn/shakopee/4571vallyindustrialblvds/123449549,,
Badger State Brewing Company,990 Tony Canadeo Run,Green Bay,WI,US,54304,44.52,-87.98,Brewery,us/wi/greenbay/990tonycanadeorun/-658202081,,
Badisch Brauhaus,Stephanienstr. 38,Fort Worth,TX,US,76133,49.01205034,8.393708193,Brewery,us/tx/fortworth/stephanienstr38/-471549841,,
Badwolf Brewing Company,8420 Kao Cir,Manassas,VA,US,20110,38.74,-77.48,Brewery,us/va/manassas/8420kaocir/373850228,,
Baeltane Brewing,401 Bel Marin Keys Blvd Ste B,Novato,CA,US,94949,38.13,-122.56,Brewery,us/ca/novato/401belmarinkeysblvdsteb/349226326,,
Baere Brewing Co.,320 N Broadway,Denver,CO,US,80203,39.721387,-104.986952,Brewery,us/co/denver/320nbroadway/-932910905,,
Baerlic Brewing Company,2235 S E 11th Ave,Portland,OR,US,97214,45.50672,-122.65488,"Breweries,Food & Drink",us/or/portland/2235se11thave/1758725431,,
Baffin Brewing Co,25113 Jefferson Ave,Saint Clair Shores,MI,US,48081,42.4782,-82.8896,Brewers,us/mi/saintclairshores/25113jeffersonave/1545559164,,
Baileyana Winery,4915 Orcutt Rd,San Luis Obispo,CA,US,93401,35.25,-120.62,"Wineries,Brewers",us/ca/sanluisobispo/4915orcuttrd/-274716210,,
Bainbridge Island Brewing,9415 Coppertop Loop,Bainbridge Island,WA,US,98110,47.64824,-122.52514,"Breweries,Food & Drink",us/wa/bainbridgeisland/9415coppertoploop/-952638754,,
Bainbridge Island Vineyards,8989 E Day Rd,Bainbridge Island,WA,US,98110,47.6761,-122.5278,"Wineries,Vineyards,Brewers",us/wa/bainbridgeisland/8989edayrd/-2055906611,,
Bake N Brew,164 Broadway,Bayonne,NJ,US,7002,40.6518,-74.1281,Brewers,us/nj/bayonne/164broadway/-313190345,,
Baker's Dozen Brewery,604 Dale St,Normal,IL,US,61761,40.51,-88.99,Brewery,us/il/normal/604dalest/1797205708,,
Bakersfield Beer Co,6201 Schirra Ct 11,Bakersfield,CA,US,93313,35.3165,-119.0718,Brewers,us/ca/bakersfield/6201schirract11/187112336,,
BakFish Brewing Company,1231 Broadway St,Pearland,TX,US,77581,29.55,-95.27,Brewery,us/tx/pearland/1231broadwayst/-1560683967,,
Baking Brew,14820 Dove Tree Ct,Tustin,CA,US,92780,33.7268,-117.8301,Brewers,us/ca/tustin/14820dovetreect/-1859765672,,
Balance Rock Brewing Co,6393 Sunset Rd,Joshua Tree,CA,US,92252,34.15,-116.27,Brewers,us/ca/joshuatree/6393sunsetrd/1554473023,,
Bald Eagle Brewery Co,315 Chestnut St,Mifflinburg,PA,US,17844,40.91818,-77.046179,Brewer Equipment Supplies & Services,us/dice/mifflinburg/315chestnutst/690740765,,
Baldwin Vineyards,176 Hardenburgh Rd,Pine Bush,NY,US,12566,41.612952,-74.298486,"Wineries,Vineyards,Brewers",us/ny/pinebush/176hardenburghrd/-659684822,,
Bale Breaker Brewing Co,1801 Birchfield Rd,Yakima,WA,US,98901,46.71,-120.42,Brewers,us/wa/yakima/1801birchfieldrd/1924688940,,
Ball & Chain Brewing Co,310 Guinea Rd,Monroe,CT,US,6468,41.36,-73.2,Brewers,us/ct/monroe/310guineard/-796501698,,
Ballast Point Brewing,28551 Rancho California Rd,Temecula,CA,US,92590,33.48,-117.22,Brewers,us/ca/temecula/28551ranchocaliforniard/-323319885,,
Ballast Point Brewing & Spirits,9045 Carroll Rd,San Diego,CA,US,92121,32.71,-117.16,Brewery,us/ca/sandiego/9045carrollrd/397044623,,
Ballast Point Tasting Room and Kitchen,28551 Rancho California Rd,Temecula,CA,US,92590,33.51,-117.1,Brewery,us/ca/temecula/28551ranchocaliforniard/503873634,,
Baltimore Brew Pass,317 Lambeth Rd,Catonsville,MD,US,21228,39.2816,-76.718,Brewers,us/md/catonsville/317lambethrd/-1854974294,,
Baltimore Brewery Consltng LLC,5400 Hamlet Ave,Baltimore,MD,US,21214,39.3543,-76.5665,Brewers,us/md/baltimore/5400hamletave/-453999451,,
Banana Hammock Brewing Co LLC,7386 Wyandot Ln,Middletown,OH,US,45044,39.5,-84.37,Brewers,us/oh/middletown/7386wyandotln/486651495,,
Banded Horn Brewery,32 Main St,Biddeford,ME,US,4005,43.4928397,-70.4526571,Brewery,us/me/biddeford/32mainst/1706692659,,
Banded Horn Brewing Co Tap Room,32 Main St W,Biddeford,ME,US,4005,43.493004,-70.452225,"Food & Drink,Breweries",us/me/biddeford/32mainstw/807893045,,
Banger Brewing,450 Fremont St Ste 135,Las Vegas,NV,US,89101,36.169434,-115.14116,"Brewery,Restaurant",us/nv/lasvegas/450fremontstste135/1174493979,,
Bantam Cidery,230 Somerville Ave,Somerville,MA,US,2143,42.39,-71.1,Brewery,us/ma/somerville/230somervilleave/343512159,,
Bar Caledonia,"C/ Baiona, 68",Brimfield,MA,US,1010,42.86552928,-2.689861618,Brewery,us/ma/brimfield/cbaiona68/-615113999,,
Bar Harbor Brewing Company,8 Mount Desest St,Bar Harbor,ME,US,4609,44.38743136,-68.20488604,Brewery,us/me/barharbor/8mountdesestst/393401596,,
Bar The,701 3rd St S,Saint Petersburg,FL,US,Saint PetersburgFL,27.75,-82.64,breweries & brew pubs,us/fl/saintpetersburg/7013rdsts/-1396217986,,
Baranof Island Brewing Company,215 Smith St,Sitka,AK,US,99835,57.05039,-135.30798,"Breweries,Food & Drink",us/ak/sitka/215smithst/-94705143,,
Barbarian Brewing,5270 W Chinden Blvd,Garden City,ID,US,83714,43.64,-116.26,Brewery,us/hiddensprings/gardencity/5270wchindenblvd/-1941007446,,
Bardo Brewpub,25 Potomac Ave SE,Washington,DC,US,20003,38.89,-77.03,Brewery,us/dc/washington/25potomacavese/590180637,,
Bardwell Brewery,716 N High St,Mount Orab,OH,US,45154,39.02,-83.92,Brewers,us/oh/mountorab/716nhighst/845027659,,
Bare Arms Brewing,2515 La Salle Ave,Waco,TX,US,,31.52513,-97.13101,"Breweries,Food & Drink",us/tx/waco/2515lasalleave/1099946039,,
Bare Beaver Brewing,Aka Lawrence House,Phoenixville,PA,US,19460,40.13,-75.51,Brewery,us/pa/phoenixville/akalawrencehouse/-1627756503,,
Bare Bones Brewery,4362 County Rd S,Oshkosh,WI,US,54904,44.01,-88.55,Brewery,us/wi/oshkosh/4362countyrds/-1094584371,,
Bare Brewing Co,320 Broadway,Denver,CO,US,80203,39.7214,-104.9871,Brewers,us/co/denver/320broadway/-1709012818,,
Bare Ranch-Michael David Winery,4580 W Highway 12,Lodi,CA,US,95242,38.116,-121.3716,"Wineries,Vineyards,Brewers",us/ca/lodi/4580whighway12/349630415,,
Barebottle Brewing Company,1525 Cortland Ave,San Francisco,CA,US,94110,37.7401129,-122.409035,"Attraction,Bars,Clubs and Nightlife,Brewery",us/ca/sanfrancisco/1525cortlandave/1656262101,,
Barfüßer,Allee 35,S Coffeyville,OK,US,74072,36.99,-95.62,Brewery,us/ok/scoffeyville/allee35/-1396231520,,
Barhop Brewing & Taproom,124 W Railroad Ave,Port Angeles,WA,US,98362,48.12099,-123.43325,"Brewery,Restaurant",us/wa/portangeles/124wrailroadave/1236792372,,
Barking Duck Brewing Co,4400 Morris Park Dr O,Charlotte,NC,US,28227,35.1525,-80.68,Brewers,us/nc/charlotte/4400morrisparkdro/-1551156131,,
Barkingside Company,6442 Lyndale Ave S,Minneapolis,MN,US,55423,44.88557,-93.286904,Brewer Equipment Supplies & Services,us/mn/minneapolis/6442lyndaleaves/1051912924,,
Barley Brothers Restaurant & Brewery,1425 Mcculloch Blvd N,Lake Havasu City,AZ,US,86403,34.47095427,-114.3489271,Brewery,us/az/lakehavasucity/1425mccullochblvdn/1179914093,,
Barley Forge Brewing Co.,2957 Randolph Ave Ste B,Costa Mesa,CA,US,92626,33.67,-117.9,Brewery,us/ca/costamesa/2957randolphavesteb/413215750,,
Barley Johns Brewing Co,1280 Madison Ave,New Richmond,WI,US,54017,45.1157,-92.523,Brewers,us/wi/newrichmond/1280madisonave/1756943237,,
Barley Mow Brewing Company,518 West Bay Dr,Largo,FL,US,33770,27.9,-82.78,Brewery,us/fl/largo/518westbaydr/-2060025435,,
Barn,2850 El Cajon Blvd 3,San Diego,CA,US,92104,32.73,-117.12,Brewers,us/ca/sandiego/2850elcajonblvd3/3016379,,
Barn Brewers Brewery,114 N Main St,Lawton,MI,US,49065,42.1683,-85.8496,"Brewers,Restaurant",us/mi/lawton/114nmainst/-433859839,,
Barn Brewery,El Cajon Blvd.,San Diego,CA,US,92104,32.71,-117.16,Brewery,us/ca/sandiego/elcajonblvd/1091374607,,
Barn Tavern The,207 S Bridge St,Grand Ledge,MI,US,48837-1526,42.753908,-84.745222,breweries & brew pubs,us/mi/grandledge/207sbridgest/505784318,,
Barn Town Brewing,9500 University Ave,West Des Moines,IA,US,50266,41.57,-93.75,Brewery,us/ia/westdesmoines/9500universityave/2050101043,,
BARNETT & SON BREWING CO.,18425 Pony Express Dr #125,Parker,CO,US,80134,39.5,-104.76,Brewery,us/co/parker/18425ponyexpressdr125/704435800,,
Barnhouse Brewery,13840 Barnhouse Pl,Leesburg,VA,US,20176,39.232,-77.5516,Brewers,us/va/leesburg/13840barnhousepl/1794558021,,
Barnstar Brewing,4050 N Tonto Rd,Tucson,AZ,US,85719,32.2701,-110.8482,Brewers,us/az/tucson/4050ntontord/-1939883149,,
Baron Von Crimson-staches Lab,5620 Bloomingdale Ave,Henrico,VA,US,23228,37.55,-77.32,Brewery,us/va/henrico/5620bloomingdaleave/-606381354,,
Barracuda,"Passeig Marítim Neptú, 25",Corunna,IN,US,46730,41.43,-85.14,"Brewery,Bar",us/in/corunna/passeigmartimnept25/1964573937,,
Barrage Brewing Co,32 Allen Blvd E,Farmingdale,NY,US,11735,40.7161,-73.4247,Brewers,us/ny/farmingdale/32allenblvde/-853198400,,
Barrel Harbor Brewing,2575 Pioneer Ave Ste 104,Vista,CA,US,92081,33.18,-117.24,Brewery,us/ca/vista/2575pioneeraveste104/-2011223122,,
Barrel House Brewing Speakeasy,1033 Chorro St,San Luis Obispo,CA,US,93401,35.25,-120.62,Brewers,us/ca/sanluisobispo/1033chorrost/-912282002,,
Barrel of Monks Brewing,1141 S Rogers Cir,Boca Raton,FL,US,33487,26.40375033,-80.10986144,Brewery,us/fl/bocaraton/1141srogerscir/1697265705,,
Barrel Republic Oceanside,215 North Coast Highway,Oceanside,CA,US,,33.196022,-117.37962,"Attraction,Bars,Clubs and Nightlife,Brewery",us/california/oceanside/215northcoasthighway/-1076469357,,
Barrel Room Winery,28932 Euclid Ave,Wickliffe,OH,US,44092,41.6021,-81.4797,"Wineries,Brewers",us/oh/wickliffe/28932euclidave/2126420177,,
Barrel Ten Quarters Circle,21801 State Highway 120,Escalon,CA,US,95320,37.7942,-120.9832,"Wineries,Brewers",us/ca/escalon/21801statehighway120/759007566,,
Barrel Theory Beer Company,248 7th St E,Saint Paul,MN,US,55101,44.94,-93.1,Brewery,us/mn/saintpaul/2487thste/-95136414,,
Barrel-Aging Room,200 E Hershey Park Dr,Hershey,PA,US,17033,40.28,-76.64,Brewery,us/pa/hershey/200ehersheyparkdr/-650227727,,
Barreled Souls Brewing,743 Portland Rd,Saco,ME,US,4072,43.5244,-70.4277,"Brewery,Brewers",us/me/saco/743portlandrd/636137989,,
Barrier Brewing Co.,3001 New St,Oceanside,NY,US,11572,40.63,-73.63,Brewery,us/rockvillecenter/oceanside/3001newst/-1923666935,,
Barritus Brewery,1947 Camino Vida Roble 200,Carlsbad,CA,US,92008,33.122,-117.2852,Brewers,us/ca/carlsbad/1947caminovidaroble200/-680452126,,
Bart Grossen Brewery,1025 Delaware Ave A,Longmont,CO,US,80501,40.1545,-105.1092,Brewers,us/co/longmont/1025delawareavea/824154014,,
Base Camp Brewing,930 SE Oak St,Portland,OR,US,97214,45.52007,-122.65598,"Brewery,Restaurant",us/or/portland/930seoakst/-380093810,,
Bashore & Stoudt Country Wnry,5784 Old Rte 22,Hamburg,PA,US,19526,40.55,-75.98,"Wineries,Vineyards,Brewers",us/pa/hamburg/5784oldrte22/-1495901457,,
Basic Brewery LLC,131 3rd Ave W,Hendersonville,NC,US,28792,35.32,-82.46,Brewers,us/nc/hendersonville/1313rdavew/507431228,,
Basquiat Wine Co Inc,11523 W Washington Blvd,Los Angeles,CA,US,90066,34.0009,-118.4168,"Beverage Manufacturers,Breweries",us/ca/losangeles/11523wwashingtonblvd/1683231789,,
Bastion Brewing Co LLC,12529 Christianson Rd,Anacortes,WA,US,98221,48.4618,-122.5708,"Brewers,Restaurant",us/wa/anacortes/12529christiansonrd/-369501832,,
Bastress Mountain Winery,5451 State Route 654,Williamsport,PA,US,17702,41.189558,-77.132879,"Wineries,Vineyards,Brewers",us/collomsville/williamsport/5451stateroute654/-1386292656,,
Batch Craft Soda,18543 Yorba Linda Blvd 241,Yorba Linda,CA,US,92886,33.889863,-117.80999,"Beverage Manufacturers,Breweries",us/ca/yorbalinda/18543yorbalindablvd241/2113073151,,
Bathtub Row Brewing Co-op,163 Central Park Sq,Los Alamos,NM,US,87545,35.883766,-106.30005,"Breweries,Food & Drink",us/nm/losalamos/163centralparksq/-445703659,,
Battered Boar Brewing Co,14801 Metro Plaza Blvd,Edmond,OK,US,73013,35.6206,-97.5098,Brewers,us/ok/edmond/14801metroplazablvd/-2130265545,,
Battle & Brew Food & Games,279 Powers Ferry Rd SE,Marietta,GA,US,30067,33.9455,-84.4985,Brewers,us/ga/marietta/279powersferryrdse/-998438743,,
Battle Born Brewing Co,200 S Virginia St,Reno,NV,US,89501,39.52,-119.81,Brewers,us/nv/reno/200svirginiast/-1364862849,,
Battle Ground Brewery,108 Bridge St,Franklin,TN,US,37064,35.92,-86.84,Brewery,us/peytonsville/franklin/108bridgest/-385918965,,
Bauernhof Brewing Co LLC,20 E High St,New Freedom,PA,US,17349,39.73,-76.69,Brewers,us/pa/newfreedom/20ehighst/353726028,,
Bauhaus Brew Labs,1315 Tyler St NE,Minneapolis,MN,US,55413,45.000889,-93.24494224,Brewery,us/mn/minneapolis/1315tylerstne/-841086475,,
Bavarian Bierhaus,700 W Lexington Blvd,Milwaukee,WI,US,53217,43.1152667,-87.9212602,"brewery,beer garden",us/glendale/milwaukee/700wlexingtonblvd/-814659751,,
Bawlmer Craft Beers LLC,4401 Eastern Ave 45,Baltimore,MD,US,21224,39.3,-76.61,Brewers,us/md/baltimore/4401easternave45/117932713,,
Baxter Brewing Company,130 Mill St,Lewiston,ME,US,4240,44.09539868,-70.21943808,Brewery,us/me/lewiston/130millst/629954629,,
Bay Bridge Brewing,688 Marsat Ct B,Chula Vista,CA,US,91911,32.61,-117.03,Brewers,us/ca/chulavista/688marsatctb/224500253,,
Bay City Brewing Co,3760 Hancock St,San Diego,CA,US,92110,32.758,-117.2148,Brewers,us/ca/sandiego/3760hancockst/-1862864005,,
Bayboro Brewing Co,6656 27th St N,Saint Petersburg,FL,US,33702,27.8328,-82.6702,Brewers,us/fl/saintpetersburg/665627thstn/2121681084,,
Bayern Brewing Inc,1507 Montana St,Missoula,MT,US,59801,46.872605,-114.020046,"Brewers,Wineries",us/msla/missoula/1507montanast/-1422453063,,
Bayhawk Ales,2000 Main St,Irvine,CA,US,92614,33.6846,-117.8508,"Brewers,Wineries",us/ca/irvine/2000mainst/-1282298048,,
Bayheads Brewing Co LLC,2525 Augustine Herman Hwy D,Chesapeake City,MD,US,21915,39.5149,-75.8241,Brewers,us/md/chesapeakecity/2525augustinehermanhwyd/-1031514425,,
Bayne Brewing Co,19507 W Catawba Ave,Cornelius,NC,US,28031,35.48,-80.8912,Brewers,us/nc/cornelius/19507wcatawbaave/-1928330449,,
Bayou Teche Brewery,1106 Bushville Hwy,Arnaudville,LA,US,70512,30.39174115,-91.92491289,Brewery,us/la/arnaudville/1106bushvillehwy/-1237075653,,
Bbc Beer Co & Tap Room,636 E Main St,Louisville,KY,US,40202,38.2567,-85.7589,"Brewers,Wineries",us/ky/louisville/636emainst/-2067321653,,
Bct Brewing Project,11620 Sterling Ave,Riverside,CA,US,92503,33.99,-117.38,Brewery,us/ca/riverside/11620sterlingave/1630653068,,
Beach Beverage,937 Portland Rd,Saco,ME,US,4072,43.53,-70.45,"Breweries,Wholesale Foods",us/me/saco/937portlandrd/-398244126,,
Beach Brew Inc,2100 Neptune Dr,Melbourne Beach,FL,US,32951,28.058323,-80.559861,Brewers,us/fl/melbournebeach/2100neptunedr/2015182053,,
Beach Brewing Co,2585 Horse Pasture Rd 204,Virginia Beach,VA,US,23453,36.787,-76.059,Brewers,us/va/virginiabeach/2585horsepasturerd204/-764218147,,
Beach City Brewery,7631 Woodwind Dr B,Huntington Beach,CA,US,92647,33.7045,-117.9954,Brewers,us/ca/huntingtonbeach/7631woodwinddrb/-692385764,,
Beach Haus Brewery,803 Main St,Belmar,NJ,US,7719,40.17,-74.02,"Brewers,Brewery",us/nj/belmar/803mainst/1105485488,,
Beachwood Blendery,"247 Long Beach Blvd Long Beach, CA 90802",Long Beach,CA,US,,33.77,-118.18,Brewery,us/ca/longbeach/247longbeachblvdlongbeach90802/-353244661,,
Beale's Brewery & BBQ,510 Grove St,Bedford,VA,US,24523,37.3369,-79.5185,Brewers,us/va/bedford/510grovest/-1110052701,,
Bear Brewing Company,15207 N 75th St 111,Scottsdale,AZ,US,85260,33.6236,-111.9163,Brewers,us/az/scottsdale/15207n75thst111/1732531601,,
Bear Creek Winery,11900 Furry Rd,Lodi,CA,US,95240,38.11,-121.16,"Brewers,Wineries",us/ca/lodi/11900furryrd/344127448,,
Bear Pond Winery,2515 State Highway 28,Oneonta,NY,US,13820,42.5204,-74.9916,"Wineries,Vineyards,Brewers",us/ny/oneonta/2515statehighway28/273280761,,
Beara Irish Brewing Co,2800 Lafayette Rd,Portsmouth,NH,US,3801,43.029187,-70.790072,Brewers,us/nh/portsmouth/2800lafayetterd/1587416824,,
Bearded Brewers of Candia,Candia Nh,Candia,NH,US,3034,43.07,-71.27,Brewery,us/nh/candia/candianh/558141624,,
Bearded Iris Brewing,101 Van Buren St,Nashville,TN,US,37208,36.1815,-86.786,"Brewery,Brewers",us/tn/nashville/101vanburenst/1102901502,,
Bearded Tree Brewery,630 N High St,Lancaster,OH,US,43130,39.7207,-82.5979,Brewers,us/oh/lancaster/630nhighst/-1473355619,,
Beardown Brew,4740 E Hampton St,Tucson,AZ,US,85712,32.2478,-110.8918,Brewers,us/az/tucson/4740ehamptonst/-1684051880,,
Beards Brewery,207 A Howard St,Petoskey,MI,US,49770,45.3756057,-84.95519131,Brewery,us/mi/petoskey/207howardst/670001287,,
Bearpaw River Brewing Co,4605 E Palmer-Wasilla Hwy,Wasilla,AK,US,99654,61.52,-149.57,Brewers,us/ak/wasilla/4605epalmerwasillahwy/-226201210,,
BearWaters Brewery,130 Frazier St #7,Waynesville,NC,US,28786,35.63,-83.02,"brewery,Pub",us/nc/waynesville/130frazierst7/-614497222,,
Beast 101,3118 Central Ave SE,Albuquerque,NM,US,87106,35.0806,-106.6106,Brewers,us/nm/albuquerque/3118centralavese/1327016499,,
Beau Vigne,210 Camino Oruga,Napa,CA,US,94558,38.22683,-122.253749,"Beverage Manufacturers,Breweries",us/ca/napa/210caminooruga/-1751333004,,
Beaucanon Winery,1006 Monticello Rd,Napa,CA,US,94558,38.3297,-122.2751,"Wineries,Brewers",us/ca/napa/1006monticellord/-694305176,,
Beaver Island Brewery,216 6th Ave S,Saint Cloud,MN,US,56301,45.55851,-94.15739,"Breweries,Food & Drink",us/mn/saintcloud/2166thaves/-715179216,,
Bec Jaune,400 taille de Mas des Frênes,Tulsa,OK,US,74110,36.12,-95.91,"Pub,Brewery",us/ok/tulsa/400tailledemasdesfrnes/1375464405,,
Becker Brewery,500 W Main St,Brighton,MI,US,48116,42.5296,-83.7854,Brewers,us/mi/brighton/500wmainst/-803604398,,
Becker Brewing Co.,3724 Quaker Rd,Gasport,NY,US,14067,43.19,-78.57,Brewery,us/ny/gasport/3724quakerrd/-803600696,,
Beckmen Vineyards,2670 Ontiveros Rd,Santa Ynez,CA,US,93460,34.64,-120.02,"Wineries,Vineyards,Brewers",us/ca/santaynez/2670ontiverosrd/878805348,,
Bedford Thompson Winery,448 Bell St,Los Alamos,CA,US,93440,34.7439,-120.2785,"Wineries,Brewers",us/ca/losalamos/448bellst/1862491712,,
Bed-Vyne Brew,370 Tompkins Ave,Brooklyn,NY,US,11216,40.684805,-73.944394,"Attraction,Bars,Clubs and Nightlife,Brewery",us/newyork/brooklyn/370tompkinsave/-279921859,,
Beelabelle Brewing LLC,1024 E Main St,Cottage Grove,OR,US,97424,43.7973,-123.0575,Brewers,us/or/cottagegrove/1024emainst/1287268501,,
Beer Bank Morelia,Boulevard Garca De Len 1361 A,Milton,ND,US,58260,48.62,-98.04,Brewery,us/nd/milton/boulevardgarcadelen1361a/51992355,,
Beer By Design,2100 E 112th Ave,Denver,CO,US,80233,39.76,-104.87,Brewers,us/co/denver/2100e112thave/-1927424763,,
Beer Corner,Heroísmo 2,Adair,IA,US,50002,41.5,-94.64,Brewery,us/ia/adair/herosmo2/1018929797,,
Beer Engine,1036 E Burnett Ave,Louisville,KY,US,40217,38.2226,-85.7394,Brewers,us/ky/louisville/1036eburnettave/1074932338,,
Beer Engineers,2147 Riverchase,Birmingham,AL,US,35244,33.364311,-86.784886,Brewers,us/riverchase/birmingham/2147riverchase/33223092,,
Beer Factory,2799 Copley Rd,Akron,OH,US,44321,41.0932,-81.6176,Brewers,us/oh/akron/2799copleyrd/-524876070,,
Beer Garden & Eatery,1393 Wilmington Pike,West Chester,PA,US,19382,39.95,-75.6,Brewery,us/pa/westchester/1393wilmingtonpike/-1082320455,,
Beer Growler,1427 South Blvd 101,Charlotte,NC,US,28203,35.2154,-80.8534,Brewers,us/nc/charlotte/1427southblvd101/860491510,,
Beer Hound Brewery,201 Waters Pl,Culpeper,VA,US,22701,38.47193,-77.99439,"Food & Drink,Breweries",us/catalpa/culpeper/201waterspl/-956959146,,
Beer Lab HI,1010 University Ave,Honolulu,HI,US,96826,21.3,-157.85,Brewery,us/hi/honolulu/1010universityave/1703315742,,
BEER Messenger,"via Emilia, 18",Center Line,MI,US,48015,42.48,-83.02,Brewery,us/mi/centerline/viaemilia18/-2003542813,,
Beer Saloon,Carretera Los Gonzalez N 1354 Local 5,Twilight,WV,US,25204,37.92,-81.62,Brewery,us/wv/twilight/carreteralosgonzalezn1354local5/1463889440,,
Beer Valley Brewing Co,937 S E 12th Ave,Ontario,OR,US,97914,44.01506,-116.953861,Breweries,us/claude/ontario/937se12thave/1123295537,,
Beer'd Brewing Company,22 Bayview Ave,Stonington,CT,US,#REF!,41.338226,-71.898285,"Food & Drink,Breweries",us/shawondassee/stonington/22bayviewave/-2132585455,,
Beerland,Plaza San Francisco 17,Alden,IA,US,50006,41.64171,-0.895,"Restaurant,Brewery",us/ia/alden/plazasanfrancisco17/1440419355,,
Beermann's Brewery LLC,645 5th St,Lincoln,CA,US,95648,38.8918,-121.2921,Brewers,us/ca/lincoln/6455thst/823915483,,
BeerParc,845 Sixth Ave. New York,New York,NY,US,10001,40.747095,-73.99022,"Attraction,Bars,Clubs and Nightlife,Brewery",us/ny/newyork/845sixthavenewyork/1440538642,,
Beers Woodlands,23 Glenleigh Pl,Spring,TX,US,77381,30.1644,-95.5214,Brewers,us/tx/spring/23glenleighpl/999191160,,
Begyle Brewing,1800 W Cuyler,Chicago,IL,US,60613,41.95516,-87.67439,"Food & Drink,Breweries",us/il/chicago/1800wcuyler/1193329458,,
Begyle Brewing Company,1800 West Cuyler Avenue,Chicago,IL,US,60613,41.955284,-87.674506,"Restaurant,Brewery",us/il/chicago/1800westcuyleravenue/2091900171,,
Belching Beaver Brewery,980 Park Center Dr,Vista,CA,US,92081,33.144756,-117.228676,"Brewery,Restaurant",us/ca/vista/980parkcenterdr/-377117391,,
Belching Beaver Taproom,4836 Newport Ave,San Diego,CA,US,92107,32.71,-117.16,Brewery,us/ca/sandiego/4836newportave/-2058596603,,
Belford Brewing Co,84 Leonardville Rd,Middletown,NJ,US,7748,40.39,-74.11,Brewers,us/nj/middletown/84leonardvillerd/-1318921636,,
Belgian Special Beers  Het Beste Biertje,"Calle Trinidad Grund, 7",Alcolu,SC,US,29001,33.76,-80.15,"Brewery,Bar",us/sc/alcolu/calletrinidadgrund7/334864751,,
Bell Family Brewery Inc,314 Plantation Way,Vacaville,CA,US,95687,38.337821,-121.959456,Brewers,us/ca/vacaville/314plantationway/1249394979,,
Bell Mountain Vineyards,463 Bell Mountain Rd,Willow City,TX,US,78675,30.4248,-98.7318,"Wineries,Vineyards,Brewers",us/tx/willowcity/463bellmountainrd/-1811279745,,
Bell Mountain Wine Tasting Rm,6264 E Us Highway 290,Fredericksburg,TX,US,78624,30.223297,-98.735434,"Brewers,Wineries",us/blumenthal/fredericksburg/6264eushighway290/-1064894378,,
Bella Casa Di Vino,201 N Riverside Ave,Saint Clair,MI,US,48079,42.8258,-82.4855,"Brewers,Wineries",us/mi/saintclair/201nriversideave/-675586525,,
Belle Marie Winery,26312 Mesa Rock Rd,Escondido,CA,US,92026,33.1894,-117.1221,"Wineries,Vineyards,Brewers",us/ca/escondido/26312mesarockrd/104855176,,
Bellefonte Brewing Co,3605 Old Capitol Trl,Wilmington,DE,US,19808,39.7304,-75.6324,Brewers,us/de/wilmington/3605oldcapitoltrl/-164489812,,
Bellevue Brewing Co,1820 130th Ave N E,Bellevue,WA,US,98005,47.61,-122.21,Brewery,us/wa/bellevue/1820130thavene/-2141458276,,
Bellport Brewing Co Inc,2 3rd St,Moriches,NY,US,11955,40.8,-72.82,Brewers,us/ny/moriches/23rdst/-1852712164,,
Belly Love Brewing Company,725 E Main St,Purcellville,VA,US,20132,39.137745,-77.70381,"Breweries,Food & Drink",us/va/purcellville/725emainst/-461232347,,
Belmont Brewing Company,25 39TH Pl 25,Long Beach,CA,US,90803,33.75965,-118.148026,"Brewers,Wineries",us/naples/longbeach/2539thpl25/563322382,,
Below Grade Brewing,1362 NW Fort Clatsop St,Bend,OR,US,97701,44.0624,-121.3552,Brewers,us/or/bend/1362nwfortclatsopst/2069886618,,
Below the Radar-Corporate Ofc,226 Holmes Ave NE,Huntsville,AL,US,35801,34.733,-86.5855,Brewers,us/al/huntsville/226holmesavene/2051376348,,
Belt Line Station,923 Franklin St,Durham,NC,US,27701,35.9903,-78.889,Brewers,us/nc/durham/923franklinst/-519430955,,
Beltway Brew Co,22620 Davis Dr,Sterling,VA,US,20164,38.9922,-77.417,Brewers,us/va/sterling/22620davisdr/1120942342,,
Beltz Brewing Co,824 Addingham Ave,Drexel Hill,PA,US,19026,39.949768,-75.316955,Brewers,us/drexelbrook/drexelhill/824addinghamave/2012960753,,
Bemidji Brewing,401 Beltrami Ave N W,Bemidji,MN,US,56601,47.4716632,-94.88143824,"Restaurant,Brewery",us/grantvalley/bemidji/401beltramiavenw/1574773756,,
Benchmark Brewing Co,6190 Fairmount Ave G,San Diego,CA,US,92120,32.7873,-117.1028,Brewers,us/ca/sandiego/6190fairmountaveg/-1496812541,,
Benchtop Brewing Company,1129 Boissevain Ave,Norfolk,VA,US,23507,36.8646,-76.3072,"Brewery,Brewers",us/va/norfolk/1129boissevainave/-421582526,,
Benford Brewing Co.,2271 Boxcar Rd,Lancaster,SC,US,29720,34.77212,-80.83281,"Food & Drink,Breweries",us/sc/lancaster/2271boxcarrd/-1060756198,,
Benmarl Wine Co,156 Highland Ave,Marlboro,NY,US,12542,41.5929,-73.9812,"Wineries,Vineyards,Brewers",us/ny/marlboro/156highlandave/616325474,,
Benoit-Casper Brewing Co Inc,1201 Pennsylvania Ave E,Richmond,CA,US,94801,37.96,-122.38,Brewers,us/ca/richmond/1201pennsylvaniaavee/-1491925911,,
Bent River Brewing Company,1413 5th Ave,Moline,IL,US,61265,41.48,-90.48,"brewery,beer garden",us/il/moline/14135thave/394145280,,
Benton Lane Winery,23924 Territorial Rd,Monroe,OR,US,97456,44.2898,-123.3016,"Wineries,Vineyards,Brewers",us/or/monroe/23924territorialrd/-840219676,,
Bentonville Brewing Co,1700 S 1st St,Rogers,AR,US,72756,36.33,-94.13,Brewers,us/ar/rogers/1700s1stst/1614856438,,
Berchman's Brewing Co,25 N Front St 2,Yakima,WA,US,98901,46.6022,-120.5076,Brewers,us/wa/yakima/25nfrontst2/473384307,,
Berghold Vineyards,17343 Cherry Rd,Lodi,CA,US,95240,38.137946,-121.210797,"Wineries,Vineyards,Brewers",us/ca/lodi/17343cherryrd/-1661578632,,
Berkeley Springs Brewing Co,91 Sugar Hollow Road Mountainside Plz,Berkeley Springs,WV,US,25411,39.60423,-78.23752,"Breweries,Food & Drink",us/unger/berkeleysprings/91sugarhollowroadmountainsideplz/1088038897,,
Berkshire Brewing Co INC,12 Railroad Yard Rd,Deerfield,MA,US,1342,42.55,-72.6,Brewers,us/ma/deerfield/12railroadyardrd/1099360149,,
Berlin Brewing,White Horse Pike,Berlin,NJ,US,,39.79,-74.93,Brewery,us/nj/berlin/whitehorsepike/794229182,,
Berliner-Kindl-Schultheiss-Brauerei,Indira-Gandhi-Str. 66-69,Dryden,NY,US,13053,42.49,-76.29,Brewery,us/ny/dryden/indiragandhistr6669/748665331,,
Bernoulli Brew Werks,2881 Poplar Ave,Memphis,TN,US,38111,35.133863,-89.965039,Brewer Equipment Supplies & Services,us/mphs/memphis/2881poplarave/164474790,,
Berryessa Brewing Co,27260 State Highway 128,Winters,CA,US,95694,38.5135,-122.0025,Brewers,us/ca/winters/27260statehighway128/-1237974066,,
Berthoud Brewing Co.,450 8th St,Berthoud,CO,US,80513,40.30422355,-105.0848937,Brewery,us/co/berthoud/4508thst/-37349851,,
Bertrams Brewery,101 S Andrews St,Salmon,ID,US,83467,45.17504885,-113.8933325,Brewery,us/elkbend/salmon/101sandrewsst/-423691120,,
Beryl's Beer Co.,3120 Blake St,Denver,CO,US,80205,39.76,-104.87,"Brewery,Bar",us/co/denver/3120blakest/84089985,,
Bethlehem Brew Works,812 Hamilton St,Allentown,PA,US,18101,40.59,-75.47,Brewers,us/pa/allentown/812hamiltonst/-1004142496,,
Bev Art Brewer and Wine Maker,10033 S Western Ave,Chicago,IL,US,60643,41.711001,-87.681586,Brewer Equipment Supplies & Services,us/il/chicago/10033swesternave/-1031069028,,
Bev Tech,99-1285 Halawa Valley St A8,Aiea,HI,US,96701,21.38,-157.92,"Wholesale Foods,Breweries",us/hi/aiea/991285halawavalleysta8/-214876759,,
Bever Island,Bever Ave,Cedar Rapids,IA,US,52403,41.97,-91.66,Brewery,us/ia/cedarrapids/beverave/-64861547,,
Beverage & Tackle,35579 Lake Shore Blvd,Eastlake,OH,US,44095,41.6634,-81.4326,"Beverage Manufacturers,Breweries",us/oh/eastlake/35579lakeshoreblvd/1195248909,,
Beverage Barn,2080 Front St,East Meadow,NY,US,11554,40.71,-73.55,Brewery,us/ny/eastmeadow/2080frontst/-870799430,,
Beverage Barn,51 West Garfield St,Bay Shore,NY,US,11706,40.72,-73.25,"Beverage Manufacturers,Breweries",us/ny/bayshore/51westgarfieldst/-870799430,,
Beverage Distribution Ctr Inc,8275 N Crescent Blvd,Pennsauken,NJ,US,8110,39.97961,-75.032454,"Beverage Manufacturers,Breweries",us/nj/pennsauken/8275ncrescentblvd/-66089282,,
Beverage Dock Inc,2330 Harrisburg Pike,Grove City,OH,US,43123,39.9107,-83.0695,"Breweries,Wholesale Foods",us/oh/grovecity/2330harrisburgpike/-870726862,,
Beverage House INC,400 High Point Rd Se 100,Cartersville,GA,US,30120,34.1513,-84.7616,"Beverage Manufacturers,Breweries",us/ga/cartersville/400highpointrdse100/-1219017215,,
Beverage Super Store,2265 Loganville Hwy,Grayson,GA,US,30017,33.8905,-83.9504,"Wholesale Foods,Breweries",us/ga/grayson/2265loganvillehwy/-445078523,,
Beverage Zone,3555 Murphy Rd,Richardson,TX,US,75082,32.999837,-96.613945,"Breweries,Wholesale Foods",us/tx/richardson/3555murphyrd/-870071125,,
Beyond Kombucha,3263 Steinway St,Astoria,NY,US,11103,40.7574,-73.9203,Brewers,us/ny/astoria/3263steinwayst/-1081032561,,
Bgp,175 Forest Ave,Palo Alto,CA,US,94301,37.44,-122.15,Brewery,us/ca/paloalto/175forestave/97483,,
Bhb,5801 Conroy,Orlando,FL,US,32835,28.5,-81.37,Brewery,us/fl/orlando/5801conroy/97500,,
Bhramari Brewing Company,101 S. Lexington Ave.,Asheville,NC,US,28801,35.57,-82.54,Brewery,us/nc/asheville/101slexingtonave/433078813,,
Bias Vineyards & Winery,3166 Hwy B,Berger,MO,US,63014,38.6698,-91.344,"Wineries,Vineyards,Brewers",us/mo/berger/3166hwyb/-213616634,,
Bias Winery & Gruhlke's,3166 Highway B,Berger,MO,US,63014,38.6704,-91.3222,"Wineries,Brewers",us/mo/berger/3166highwayb/243265332,,
Biddulph Beverage Store,6980 Biddulph Rd,Cleveland,OH,US,44144,41.4317,-81.731,"Breweries,Wholesale Foods",us/oh/cleveland/6980biddulphrd/-994944724,,
"Bier Baron Hotel, Tavern and Restaurant",1523 22nd Street Northwest,Washington,DC,US,20037,38.91027,-77.048664,"Attraction,Bars,Clubs and Nightlife,Brewery",us/dc/washington/152322ndstreetnorthwest/-2093551541,,
Bier Brewery Taproom,5133 E 65th St,Indianapolis,IN,US,46220,39.8757,-86.083,"Brewery,Brewers",us/in/indianapolis/5133e65thst/1770381000,,
Biergarten at Anheuser-Busch,221 Daniel Webster Hwy,Merrimack,NH,US,3054,42.86,-71.48,Brewery,us/nh/merrimack/221danielwebsterhwy/1722784356,,
Bierkrug,Av Mariano Otero 5120 Local 1,West Elkton,OH,US,45070,20.63727809,-103.4212554,Brewery,us/oh/westelkton/avmarianootero5120local1/695453549,,
Bierwerks,121 East Midland,Woodland Park,CO,US,80863,38.9941,-105.0541,Brewers,us/co/woodlandpark/121eastmidland/94915864,,
Big Al Brewing,9832 14th Ave SW,Seattle,WA,US,98106,47.51445567,-122.3526385,Brewery,us/wa/seattle/983214thavesw/1455045653,,
Big Alice Brewery,808 43rd Rd,New York,NY,US,10001,40.7521,-73.9505,Brewers,us/ny/newyork/80843rdrd/1213735850,,
Big Bay Brewing Co.,4517 North Oakland Ave,Milwaukee,WI,US,53211,43.0988,-87.8874,Brewers,us/wi/milwaukee/4517northoaklandave/838134598,,
Big Bear Lake Brewing Company,40827 Stone Rd.,Big Bear Lake,CA,US,92315,34.24258282,-116.9111426,Brewery,us/ca/bigbearlake/40827stonerd/-1263549472,,
Big Beaver Brewing Co,2707 W Eisenhower Blvd 9,Loveland,CO,US,80537,40.4075,-105.1136,Brewers,us/co/loveland/2707weisenhowerblvd9/982130843,,
Big Block Brewing Taproom,3310 E S E Lake Sammamish Pkwy 1,Sammamish,WA,US,98075,47.62,-122.02,Brewery,us/wa/sammamish/3310eselakesammamishpkwy1/-1936460757,,
Big Blue Brewing Company,4721 SE 10th pl,Cape Coral,FL,US,33904,26.63,-81.99,"Brewery,Restaurant",us/fl/capecoral/4721se10thpl/1051104439,,
Big Boiler Brewing,318 E Main St,Lowell,MI,US,49331,42.9337,-85.3409,Brewers,us/mi/lowell/318emainst/-1547583197,,
Big Boy Holding Co Inc,402 Douglass St,Reading,PA,US,19610,40.33,-75.92,Brewers,us/pa/reading/402douglassst/-2041325449,,
Big Chicago Brewing Co,2701 Deborah Ave,Zion,IL,US,60099,42.45,-87.84,Brewers,us/il/zion/2701deborahave/-773757706,,
Big Choice Brewing,7270 W 118th Pl Unit A,Broomfield,CO,US,80020,39.94,-105.06,"brewery,Pub",us/co/broomfield/7270w118thplunita/-1913587233,,
Big Choice Brewing,21 S 1st Ave,Brighton,CO,US,80601,39.95,-104.79,"brewery,Pub",us/co/brighton/21s1stave/-1913587233,,
Big Dan's Brew Shed,1111 Coliseum Blvd,Greensboro,NC,US,27403,36.0594,-79.8235,Brewers,us/nc/greensboro/1111coliseumblvd/81565624,,
Big Dog's Winterfest,4543 N Rancho Dr,Las Vegas,NV,US,89130,36.17,-115.12,Brewery,us/nv/lasvegas/4543nranchodr/-639354212,,
Big Grove Brewery & Taproom,1225 S Gilbert St,Iowa City,IA,US,52240,41.64674,-91.53308,"Brewery,Restaurant",us/ia/iowacity/1225sgilbertst/-1664924953,,
Big Hart Brewing Co.,4256 W Polk Rd,Hart,MI,US,49420,43.69,-86.36,Brewery,us/mi/hart/4256wpolkrd/-1865499323,,
Big Head Brewing Co LLC,6100 W State St 633,Milwaukee,WI,US,53213,43.06,-87.96,Brewers,us/wi/milwaukee/6100wstatest633/190207168,,
Big Johnson's Brewing Co.,33961 Mariana Dr,Dana Point,CA,US,92629,33.47,-117.7,Brewery,us/ca/danapoint/33961marianadr/-1520545676,,
Big Lake Brewery,977 Butternut Ave,Holland,MI,US,49424,42.826935,-86.13541,"Food & Drink,Breweries",us/mi/holland/977butternutave/-1068445765,,
Big Lick Brewing Company,135 Salem Ave,Roanoke,VA,US,24011,37.27267,-79.94397,"Food & Drink,Breweries",us/va/roanoke/135salemave/960410562,,
Big Lug Canteen,1435 E 86th St,Indianapolis,IN,US,46240,39.91169,-86.13612,"Brewery,Restaurant",us/in/indianapolis/1435e86thst/481827308,,
Big Muddy Brewing,1430 N 7th St,Murphysboro,IL,US,62966,37.782339,-89.332116,Brewers,us/levan/murphysboro/1430n7thst/-853346769,,
Big River Breweries Inc,2001 Riverside Dr Ste 3100,Chattanooga,TN,US,37406,35.0583,-85.2772,"Brewers,Wineries",us/tn/chattanooga/2001riversidedrste3100/-1130853444,,
Big River Brewing Co,100 E 10th St 600,Chattanooga,TN,US,37402,35.0446,-85.3089,Brewers,us/tn/chattanooga/100e10thst600/-483854060,,
Big River Grille & Brewing Works - Chattanooga,222 Broad St,Chattanooga,TN,US,37402,35.05395,-85.310333,"Restaurant,Brewery",us/tn/chattanooga/222broadst/-1882648658,,
Big Sam's Grill & Bar,13802 Embassy Row,San Antonio,TX,US,78216,29.56576794,-98.48515749,Brewery,us/tx/sanantonio/13802embassyrow/-1852386839,,
Big Sexy Brewing Company,5861 88th St #800,Sacramento,CA,US,95828,38.58,-121.49,Brewery,us/ca/sacramento/586188thst800/-1047827088,,
Big Sky Brewing,5417 Trumpeter Way,Missoula,MT,US,59808,46.92198,-114.07243,"Breweries,Food & Drink",us/mt/missoula/5417trumpeterway/897696863,,
Big Slide Brewery & Pubc Hse,677 Broadway,Albany,NY,US,12207,42.66,-73.79,Brewers,us/ny/albany/677broadway/852723835,,
Big Spring Spirits,198 Match Factory Pl,Bellefonte,PA,US,16823,40.91,-77.76,Brewery,us/pa/bellefonte/198matchfactorypl/556145397,,
Big Storm Brewery,2438 Merchant Ave 103,Odessa,FL,US,33556,28.1944,-82.6318,Brewers,us/fl/odessa/2438merchantave103/583002401,,
Big Storm Brewing Company,12707 49th St N,Clearwater,FL,US,33762,27.887419,-82.69974,"Breweries,Food & Drink",us/fl/clearwater/1270749thstn/-651895546,,
Big Stump Brewing Co,1716 L St,Sacramento,CA,US,95811,38.5754,-121.4847,"Brewers,Brewery",us/ca/sacramento/1716lst/784726505,,
Big Thicket Brewery,113 W Shepherd Ave,Lufkin,TX,US,75904,31.338263,-94.72977,"Breweries,Food & Drink",us/tx/lufkin/113wshepherdave/995567518,,
Big Thompson Brewery,114 E 15th St,Loveland,CO,US,80538,40.4082,-105.0754,"Brewers,Brewery",us/co/loveland/114e15thst/404334646,,
Big Water Brewery,24 Robie Rd,Salisbury,NH,US,3268,43.6443,-71.8261,Brewers,us/nh/salisbury/24robierd/2045291827,,
Big White House Winery,585 S L St,Livermore,CA,US,94550,37.6772,-121.7698,"Wineries,Brewers",us/ca/livermore/585slst/1909816423,,
Big Wood Brewery,2222 4th St,Saint Paul,MN,US,55110,44.94,-93.1,"Brewery,Brewers",us/mn/saintpaul/22224thst/1801010397,,
Big Woods Brewery,60 Molly Ln,Nashville,IN,US,47448,39.2,-86.23,"Brewery,American Restaurant",us/in/nashville/60mollyln/-1399325692,,
Bigelow Brewing Company,473 Bigelow Hill Rd,Skowhegan,ME,US,4976,44.720917,-69.729866,"Food & Drink,Breweries",us/me/skowhegan/473bigelowhillrd/-1805746068,,
Biggs Beer Wine & Tobacco,813 Main St 106,Vancouver,WA,US,98660,45.6278,-122.6715,"Breweries,Wholesale Foods",us/wa/vancouver/813mainst106/-995110896,,
Bike & Brew Atx,6305 Dorchester Dr,Austin,TX,US,78723,30.314,-97.6855,Brewers,us/tx/austin/6305dorchesterdr/781118306,,
Bike Dog Brewing Co.,2534 Industrial Blvd Ste 110,West Sacramento,CA,US,95691,38.59,-121.54,Brewery,us/ca/westsacramento/2534industrialblvdste110/-897123963,,
Biker Brewhouse LLC,5700 Interstate Blvd,Youngstown,OH,US,44515,41.1203,-80.7711,Brewers,us/oh/youngstown/5700interstateblvd/-1121963571,,
Bilbobeer,amistad 4,Algonac,MI,US,48001,42.61,-82.53,Brewery,us/mi/algonac/amistad4/1546917698,,
Bills Drinking Est,1038 7th Ave,Marion,IA,US,52302,42.0334,-91.5988,Brewers,us/ia/marion/10387thave/-855789520,,
Bill's Drinking Establishment,1038 7th Ave,Marion,IA,US,52302,42.03,-91.58,Brewery,us/ia/marion/10387thave/1008778305,,
Binghamton Brewing Co.,15 Avenue B,Johnson City,NY,US,13790,42.11,-75.96,Brewery,us/ny/johnsoncity/15avenueb/-1116736447,,
Biraus Pub,"via Misericordia, 3",Meredithville,VA,US,23873,45.703262,9.327385,"Pub,Brewery",us/va/meredithville/viamisericordia3/-1740565335,,
Birdsong Brewing,2315 N Davidson St,Charlotte,NC,US,28205,35.2407,-80.8144,"Brewers,Brewery",us/nc/charlotte/2315ndavidsonst/-1715793262,,
Birdstone Winery,9400 Rd 36,Madera,CA,US,93636,36.885872,-119.895653,"Wineries,Brewers",us/ca/madera/9400rd36/1913001564,,
Birdsview Brewing Company,38302 Washington 20,Concrete,WA,US,98237,48.5285,-121.9126,Brewers,us/wa/concrete/38302washington20/1536635676,,
Birra 08,C/ Llacuna 165 (Metro Glories o Clot),Cedar Brook,NJ,US,8018,41.40712,2.19082,"Breweries,Food & Drink",us/nj/cedarbrook/cllacuna165metrogloriesoclot/-104119294,,
Birra Artigianale Zimella,Via Bagnoli 26,Alvaton,KY,US,42122,44.6331,10.73739,"Breweries,Food & Drink",us/ky/alvaton/viabagnoli26/1539505487,,
Birreria,200 5th Avenue,New York,NY,US,10010,40.741967,-73.989491,"Attraction,Bars,Clubs and Nightlife,Brewery",us/ny/newyork/2005thavenue/1067453388,,
Birreria Batik,"Viale Umbria, 64",Bluemont,VA,US,20135,39.11,-77.83,"Pub,Brewery",us/va/bluemont/vialeumbria64/-1419883605,,
Birreria del Pratello,"Via del Pratello, 24",Fort Knox,KY,US,40122,37.89,-85.96,"Pub,Brewery",us/ky/fortknox/viadelpratello24/1146843486,,
Birreria Monaco,Via Bassano 4,Dozier,AL,US,36028,31.5,-86.37,"brewery,Pub",us/al/dozier/viabassano4/-739055411,,
Birreria Walhalla,"Via Carrubbio, 113",Chelsea,AL,US,35043,33.32,-86.63,"brewery,Pub",us/al/chelsea/viacarrubbio113/-905414286,,
Birrificio Il Mastio,Via Aldo Moro 5,Bethalto,IL,US,62010,43.18668,13.36949,"Breweries,Food & Drink",us/il/bethalto/viaaldomoro5/1551766434,,
Birrificio indipendente Elav,Via Autieri D'Italia,Roanoke,VA,US,24040,37.27,-79.95,Brewery,us/va/roanoke/viaautieriditalia/897871279,,
Birrificio Irrenhaus,Viale Europa 84,Olney,MD,US,20832,45.63389,9.20027,Brewery,us/md/olney/vialeeuropa84/-1315835451,,
Birrificio La Ribalta,Via Cevedale 3,Hamilton,VA,US,20158,45.50714,9.173205,"brewery,beer garden",us/va/hamilton/viacevedale3/-1902999830,,
Birrificio Torino,Via Parma 30,New York,NY,US,10152,40.71,-73.99,Brewery,us/ny/newyork/viaparma30/1526165015,,
Birritrovo,"Via dei Mille, 22",Saint Ann,MO,US,63074,38.72,-90.38,Brewery,us/mo/saintann/viadeimille22/-557828888,,
Birrolandia,"Via Nazareth, 11",Pell City,AL,US,35128,33.56,-86.27,"Pub,Brewery",us/al/pellcity/vianazareth11/672448203,,
Biscayne Bay Brewing Co,8000 th St 500,Miami,FL,US,33122,25.7959,-80.3264,Brewers,us/fl/miami/8000thst500/-1688724468,,
Bishop Cider Co.,509 N Bishop Ave,Dallas,TX,US,75208,32.79,-96.76,Brewery,us/tx/dallas/509nbishopave/-1267025842,,
Bison Brewing Co,930 Dwight Way 10A,Berkeley,CA,US,94710,37.8603,-122.2929,Brewers,us/ca/berkeley/930dwightway10a/-1247021739,,
Bissell Brothers Brewing Company,1 Industrial Way,Portland,ME,US,4103,43.70313,-70.31988,"Breweries,Food & Drink",us/me/portland/1industrialway/32077614,,
Bitburger Braugruppe Verwaltung,Römermauer 3,Hillsboro,WI,US,54634,43.65,-90.33,Brewery,us/wi/hillsboro/rmermauer3/493976474,,
Bitter & Esters,700 Washington Ave,Brooklyn,NY,US,11238,40.677099,-73.963803,Brewery,us/ny/brooklyn/700washingtonave/559517460,,
Bitter Root Brewing,101 Marcus St,Hamilton,MT,US,59840,46.24726228,-114.1545391,Brewery,us/mt/hamilton/101marcusst/-1704334326,,
Bitter Sisters Brewing Co,15103 Surveyor Blvd,Addison,TX,US,75001,32.96,-96.83,Brewers,us/tx/addison/15103surveyorblvd/-117118235,,
Bitterroot Brewing Co,11335 W Hickory Nut St,Boise,ID,US,83713,43.63,-116.32,Brewers,us/id/boise/11335whickorynutst/-1704334326,,
BJ`s Brewhouse,13130 Jamboree Rd,Irvine,CA,US,92602,33.729626,-117.78715,"Restaurant,American,Brewery",us/ca/irvine/13130jamboreerd/167605907,,
BJ's  Resturant,Hazard Center,San Diego,CA,US,92108,32.773195,-117.157021,"Restaurant,American,Brewery",us/ca/sandiego/hazardcenter/-402254325,,
BJ's Brewery,5500 Grossmont Center Drive,La Mesa,CA,US,91942,32.78001,-117.01016,"Restaurant,American,Brewery",us/ca/lamesa/5500grossmontcenterdrive/-1693681249,,
BJs Brewhouse,7852 Mall Rd,Florence,KY,US,41042,38.99,-84.64,"American Restaurant,Brewery",us/ky/florence/7852mallrd/167605907,,
BJ's Brewhouse,10840 W Charleston Blvd,Las Vegas,NV,US,89135,36.159214,-115.33186,"Restaurant,American,Brewery",us/nv/lasvegas/10840wcharlestonblvd/167605907,,
BJ's Pizza Grill & Brewery,1690 28th Street,Boulder,CO,US,80302,40.01789,-105.25775,"Restaurant,American,Brewery",us/co/boulder/169028thstreet/-942225591,,
BJ's Restaurant,12010 West Broad St,Henrico,VA,US,23233,37.55,-77.32,"American Restaurant,Brewery",us/va/henrico/12010westbroadst/-154300760,,
Bj's Restaurant & Brewhouse,19075 I 45,Conroe,TX,US,77385,30.18529663,-95.45142889,"Brewery,American Restaurant",us/shenandoah/conroe/19075i45/554746294,,
Bj's restaurant and brewery,8188 E Santa Ana Canyon,Anaheim,CA,US,,33.867256,-117.74748,"Restaurant,American,Pubs,Brewery",us/california/anaheim/8188esantaanacanyon/1403924866,,
BJ's Restaurant and Brewhouse,3624 Lenox Ave,Charlottesville,VA,US,22901,38.03,-78.48,"American Restaurant,Brewery",us/va/charlottesville/3624lenoxave/554746294,,
Black Abbey Brewing Company,2954 Sidco,Nashville,TN,US,37204,36.10591901,-86.75573258,Brewery,us/tn/nashville/2954sidco/-870728045,,
Black Bear Bier Garten,"500 E Main St, #205",Blue Ridge,GA,US,30513,34.86,-84.32,Brewery,us/ga/blueridge/500emainst205/1608234732,,
Black Bear Bottling Group Llc,2025 W South Branch Blvd,Oak Creek,WI,US,53154,42.88,-87.89,"Bottlers,Beverage Manufacturers,Breweries",us/wi/oakcreek/2025wsouthbranchblvd/742810121,,
